{
"type": "FeatureCollection",
"name": "Museen",
"crs": { "type": "name", "properties": { "name": "urn:ogc:def:crs:OGC:1.3:CRS84" } },
"features": [
{ "type": "Feature", "properties": { "NAME": "Museum Haus Rüschhaus", "STR_NAME": "Am Rüschhaus", "HSNR": 81.0, "HSNR_ZUS": "", "PLZ": 48161.0, "ORT": "Münster", "RECHTSWERT": 400507.0, "HOCHWERT": 5760424.0, "HOMEPAGE": "http:\/\/www.burg-huelshoff.de\/" }, "geometry": { "type": "Point", "coordinates": [ 7.551161325308003, 51.985566069815896 ] } },
{ "type": "Feature", "properties": { "NAME": "Gallitzinhaus", "STR_NAME": "Angelmodder Weg", "HSNR": 97.0, "HSNR_ZUS": "", "PLZ": 48167.0, "ORT": "Münster", "RECHTSWERT": 410678.0, "HOCHWERT": 5753272.0, "HOMEPAGE": "http:\/\/www.heimatfreunde-angelmodde.de\/" }, "geometry": { "type": "Point", "coordinates": [ 7.701089310032726, 51.923007424437024 ] } },
{ "type": "Feature", "properties": { "NAME": "Kunsthaus Kannen", "STR_NAME": "Alexianerweg", "HSNR": 9.0, "HSNR_ZUS": "", "PLZ": 48163.0, "ORT": "Münster", "RECHTSWERT": 401240.0, "HOCHWERT": 5748261.0, "HOMEPAGE": "https:\/\/www.kunsthaus-kannen.de\/ausstellungen\/" }, "geometry": { "type": "Point", "coordinates": [ 7.565322925883247, 51.876372951263065 ] } },
{ "type": "Feature", "properties": { "NAME": "Karnevalsmuseum", "STR_NAME": "Heumannsweg", "HSNR": 127.0, "HSNR_ZUS": "", "PLZ": 48155.0, "ORT": "Münster", "RECHTSWERT": 408563.0, "HOCHWERT": 5755673.0, "HOMEPAGE": "https:\/\/www.paohlbuerger.de\/" }, "geometry": { "type": "Point", "coordinates": [ 7.669703903609868, 51.944245799215217 ] } },
{ "type": "Feature", "properties": { "NAME": "LWL-Museum für Kunst und Kultur", "STR_NAME": "Domplatz", "HSNR": 10.0, "HSNR_ZUS": "", "PLZ": 48143.0, "ORT": "Münster", "RECHTSWERT": 405509.0, "HOCHWERT": 5757706.0, "HOMEPAGE": "https:\/\/www.lwl.org\/LWL\/Kultur\/museumkunstkultur\/" }, "geometry": { "type": "Point", "coordinates": [ 7.624726530177112, 51.962008961600063 ] } },
{ "type": "Feature", "properties": { "NAME": "Archäologisches Museum", "STR_NAME": "Domplatz", "HSNR": 20.0, "HSNR_ZUS": "", "PLZ": 48143.0, "ORT": "Münster", "RECHTSWERT": 405446.0, "HOCHWERT": 5757716.0, "HOMEPAGE": "https:\/\/www.uni-muenster.de\/ArchaeologischesMuseum\/" }, "geometry": { "type": "Point", "coordinates": [ 7.623807126619139, 51.962088134911397 ] } },
{ "type": "Feature", "properties": { "NAME": "Porzellanmuseum", "STR_NAME": "Gasselstiege", "HSNR": 33.0, "HSNR_ZUS": "", "PLZ": 48159.0, "ORT": "Münster", "RECHTSWERT": 404474.0, "HOCHWERT": 5758952.0, "HOMEPAGE": "http:\/\/www.stadtheimatbund-muenster.de\/" }, "geometry": { "type": "Point", "coordinates": [ 7.609320682328395, 51.973031587263286 ] } },
{ "type": "Feature", "properties": { "NAME": "Eisenbahnmuseum der KG Pängelanton", "STR_NAME": "Erbdrostenweg", "HSNR": 2.0, "HSNR_ZUS": "", "PLZ": 48167.0, "ORT": "Münster", "RECHTSWERT": 408277.0, "HOCHWERT": 5754228.0, "HOMEPAGE": "http:\/\/www.paengelanton.de" }, "geometry": { "type": "Point", "coordinates": [ 7.665929530238545, 51.931210171254129 ] } },
{ "type": "Feature", "properties": { "NAME": "Kunsthalle Münster", "STR_NAME": "Hafenweg", "HSNR": 28.0, "HSNR_ZUS": "", "PLZ": 48155.0, "ORT": "Münster", "RECHTSWERT": 406825.0, "HOCHWERT": 5756567.0, "HOMEPAGE": "https:\/\/www.stadt-muenster.de\/kunsthalle\/ausstellungen.html" }, "geometry": { "type": "Point", "coordinates": [ 7.644183380011532, 51.951993163162122 ] } },
{ "type": "Feature", "properties": { "NAME": "Villa ten Hompel", "STR_NAME": "Kaiser-Wilhelm-Ring", "HSNR": 28.0, "HSNR_ZUS": "a", "PLZ": 48145.0, "ORT": "Münster", "RECHTSWERT": 407018.0, "HOCHWERT": 5758147.0, "HOMEPAGE": "https:\/\/www.stadt-muenster.de\/villa-ten-hompel\/startseite.html" }, "geometry": { "type": "Point", "coordinates": [ 7.646563256879447, 51.966227311028767 ] } },
{ "type": "Feature", "properties": { "NAME": "Wewerka Pavillion", "STR_NAME": "Kardinal-von-Galen-Ring", "HSNR": 0.0, "HSNR_ZUS": "", "PLZ": 48149.0, "ORT": "Münster", "RECHTSWERT": 404117.0, "HOCHWERT": 5756704.0, "HOMEPAGE": "http:\/\/www.wewerka-pavillon.de" }, "geometry": { "type": "Point", "coordinates": [ 7.604752704682749, 51.952764307223653 ] } },
{ "type": "Feature", "properties": { "NAME": "Lepramuseum", "STR_NAME": "Kinderhaus", "HSNR": 15.0, "HSNR_ZUS": "", "PLZ": 48159.0, "ORT": "Münster", "RECHTSWERT": 404673.0, "HOCHWERT": 5761943.0, "HOMEPAGE": "https:\/\/www.lepramuseum.de\/" }, "geometry": { "type": "Point", "coordinates": [ 7.611385485300695, 51.999949875624026 ] } },
{ "type": "Feature", "properties": { "NAME": "Heimatmuseum Kinderhaus", "STR_NAME": "Kinderhaus", "HSNR": 15.0, "HSNR_ZUS": "", "PLZ": 48159.0, "ORT": "Münster", "RECHTSWERT": 404696.0, "HOCHWERT": 5761950.0, "HOMEPAGE": "https:\/\/www.heimatmuseum-kinderhaus.de\/" }, "geometry": { "type": "Point", "coordinates": [ 7.611718469899428, 52.000016742322551 ] } },
{ "type": "Feature", "properties": { "NAME": "Torhaus", "STR_NAME": "Neutor", "HSNR": 2.0, "HSNR_ZUS": "", "PLZ": 48143.0, "ORT": "Münster", "RECHTSWERT": 404904.0, "HOCHWERT": 5758287.0, "HOMEPAGE": "http:\/\/www.stadtheimatbund-muenster.de\/" }, "geometry": { "type": "Point", "coordinates": [ 7.615762907876199, 51.96712806112069 ] } },
{ "type": "Feature", "properties": { "NAME": "Domkammer", "STR_NAME": "Horsteberg", "HSNR": 7.0, "HSNR_ZUS": "", "PLZ": 48143.0, "ORT": "Münster", "RECHTSWERT": 405592.0, "HOCHWERT": 5757870.0, "HOMEPAGE": "https:\/\/www.paulusdom.de\/kunst\/domkammer\/" }, "geometry": { "type": "Point", "coordinates": [ 7.625889099897934, 51.963497164039481 ] } },
{ "type": "Feature", "properties": { "NAME": "Bibelmuseum", "STR_NAME": "Pferdegasse", "HSNR": 1.0, "HSNR_ZUS": "", "PLZ": 48143.0, "ORT": "Münster", "RECHTSWERT": 405424.0, "HOCHWERT": 5757627.0, "HOMEPAGE": "https:\/\/www.uni-muenster.de\/Bibelmuseum\/" }, "geometry": { "type": "Point", "coordinates": [ 7.623511533074449, 51.96128442350021 ] } },
{ "type": "Feature", "properties": { "NAME": "Geomuseum", "STR_NAME": "Pferdegasse", "HSNR": 3.0, "HSNR_ZUS": "", "PLZ": 48143.0, "ORT": "Münster", "RECHTSWERT": 405401.0, "HOCHWERT": 5757652.0, "HOMEPAGE": "https:\/\/www.uni-muenster.de\/Geomuseum\/" }, "geometry": { "type": "Point", "coordinates": [ 7.623170002794198, 51.961505221072237 ] } },
{ "type": "Feature", "properties": { "NAME": "Friedenssaal", "STR_NAME": "Prinzipalmarkt", "HSNR": 10.0, "HSNR_ZUS": "", "PLZ": 48143.0, "ORT": "Münster", "RECHTSWERT": 405740.0, "HOCHWERT": 5757657.0, "HOMEPAGE": "https:\/\/www.stadt-muenster.de\/tourismus\/kunst-und-kultur\/museen\/friedenssaal.html" }, "geometry": { "type": "Point", "coordinates": [ 7.628101034732659, 51.961607740426842 ] } },
{ "type": "Feature", "properties": { "NAME": "LWL-Museum für Naturkunde", "STR_NAME": "Sentruper Straße", "HSNR": 285.0, "HSNR_ZUS": "", "PLZ": 48161.0, "ORT": "Münster", "RECHTSWERT": 403183.0, "HOCHWERT": 5756346.0, "HOMEPAGE": "https:\/\/www.lwl-naturkundemuseum-muenster.de\/de\/" }, "geometry": { "type": "Point", "coordinates": [ 7.591266817948692, 51.949384681945176 ] } },
{ "type": "Feature", "properties": { "NAME": "Planetarium", "STR_NAME": "Sentruper Straße", "HSNR": 285.0, "HSNR_ZUS": "", "PLZ": 48161.0, "ORT": "Münster", "RECHTSWERT": 403180.0, "HOCHWERT": 5756360.0, "HOMEPAGE": "https:\/\/www.lwl-naturkundemuseum-muenster.de\/de\/planetarium\/" }, "geometry": { "type": "Point", "coordinates": [ 7.591219237083625, 51.949509996172495 ] } },
{ "type": "Feature", "properties": { "NAME": "Westfälisches Pferdemuseum", "STR_NAME": "Sentruper Straße", "HSNR": 311.0, "HSNR_ZUS": "", "PLZ": 48161.0, "ORT": "Münster", "RECHTSWERT": 402922.0, "HOCHWERT": 5756168.0, "HOMEPAGE": "https:\/\/www.pferdemuseum.de\/" }, "geometry": { "type": "Point", "coordinates": [ 7.587520662227776, 51.947739272628837 ] } },
{ "type": "Feature", "properties": { "NAME": "Orgelmuseum Fleiter", "STR_NAME": "Sessendrupweg", "HSNR": 56.0, "HSNR_ZUS": "", "PLZ": 48161.0, "ORT": "Münster", "RECHTSWERT": 400582.0, "HOCHWERT": 5762148.0, "HOMEPAGE": "https:\/\/www.orgelbau-fleiter.de\/" }, "geometry": { "type": "Point", "coordinates": [ 7.551753171837133, 52.00107497321482 ] } },
{ "type": "Feature", "properties": { "NAME": "Stadtmuseum", "STR_NAME": "Salzstraße", "HSNR": 28.0, "HSNR_ZUS": "", "PLZ": 48143.0, "ORT": "Münster", "RECHTSWERT": 406076.0, "HOCHWERT": 5757546.0, "HOMEPAGE": "https:\/\/www.stadt-muenster.de\/museum\/aktuelles.html" }, "geometry": { "type": "Point", "coordinates": [ 7.633020163923101, 51.960666885624697 ] } },
{ "type": "Feature", "properties": { "NAME": "Mühlenhof-Freilichtmuseum", "STR_NAME": "Theo-Breider-Weg", "HSNR": 1.0, "HSNR_ZUS": "", "PLZ": 48149.0, "ORT": "Münster", "RECHTSWERT": 403643.0, "HOCHWERT": 5756388.0, "HOMEPAGE": "https:\/\/www.muehlenhof-muenster.org\/" }, "geometry": { "type": "Point", "coordinates": [ 7.597946090261001, 51.949842070808685 ] } },
{ "type": "Feature", "properties": { "NAME": "Bienenmuseum im Mühlenhof", "STR_NAME": "Theo-Breider-Weg", "HSNR": 1.0, "HSNR_ZUS": "", "PLZ": 48149.0, "ORT": "Münster", "RECHTSWERT": 403743.0, "HOCHWERT": 5756354.0, "HOMEPAGE": "http:\/\/www.imkerverein-muenster.de\/" }, "geometry": { "type": "Point", "coordinates": [ 7.599410204035381, 51.949553781839491 ] } },
{ "type": "Feature", "properties": { "NAME": "Kunstmuseum Pablo Picasso", "STR_NAME": "Picassoplatz", "HSNR": 1.0, "HSNR_ZUS": "", "PLZ": 48143.0, "ORT": "Münster", "RECHTSWERT": 405615.0, "HOCHWERT": 5757505.0, "HOMEPAGE": "https:\/\/www.kunstmuseum-picasso-muenster.de\/home\/" }, "geometry": { "type": "Point", "coordinates": [ 7.626324066391611, 51.960220292242148 ] } },
{ "type": "Feature", "properties": { "NAME": "Museum für Lackkunst", "STR_NAME": "Windthorststraße", "HSNR": 26.0, "HSNR_ZUS": "", "PLZ": 48143.0, "ORT": "Münster", "RECHTSWERT": 405948.0, "HOCHWERT": 5757228.0, "HOMEPAGE": "http:\/\/www.museum-fuer-lackkunst.de\/" }, "geometry": { "type": "Point", "coordinates": [ 7.631244879869565, 51.957786919811682 ] } },
{ "type": "Feature", "properties": { "NAME": "Hiltruper Museum", "STR_NAME": "Zur Alten Feuerwache", "HSNR": 26.0, "HSNR_ZUS": "", "PLZ": 48165.0, "ORT": "Münster", "RECHTSWERT": 406368.0, "HOCHWERT": 5751349.0, "HOMEPAGE": "http:\/\/www.hiltruper-museum.de\/" }, "geometry": { "type": "Point", "coordinates": [ 7.638955217598741, 51.905014281920749 ] } }
]
}
