{
"type": "FeatureCollection",
"name": "spielplaetze",
"crs": { "type": "name", "properties": { "name": "urn:ogc:def:crs:OGC:1.3:CRS84" } },
"features": [
{ "type": "Feature", "properties": { "ID": 754, "Name": "SP FICHTENWEG", "Groesse": 2069.0, "Bereich": "A", "Ball": 2, "Skater": null, "Streetball": "ja", "Rechtswert": 3407670.0, "Hochwert": 5753819.0, "raster": 1 }, "geometry": { "type": "Point", "coordinates": [ 7.657179640932728, 51.91070734287235 ] } },
{ "type": "Feature", "properties": { "ID": 755, "Name": "SP PESTALOZZISTRASSE", "Groesse": 1060.0, "Bereich": "B/C", "Ball": 2, "Skater": null, "Streetball": null, "Rechtswert": 3404112.0, "Hochwert": 5763870.0, "raster": 1 }, "geometry": { "type": "Point", "coordinates": [ 7.602688095915511, 52.000412857825673 ] } },
{ "type": "Feature", "properties": { "ID": 756, "Name": "SP GALGENHEIDE", "Groesse": 472.0, "Bereich": "B/C", "Ball": 0, "Skater": null, "Streetball": null, "Rechtswert": 3403618.0, "Hochwert": 5755581.0, "raster": 1 }, "geometry": { "type": "Point", "coordinates": [ 7.597820962690498, 51.925852768703876 ] } },
{ "type": "Feature", "properties": { "ID": 757, "Name": "SP FRANKENWEG", "Groesse": 1231.0, "Bereich": "B/C", "Ball": 0, "Skater": null, "Streetball": null, "Rechtswert": 3408824.0000000005, "Hochwert": 5754826.0, "raster": 1 }, "geometry": { "type": "Point", "coordinates": [ 7.673678626241824, 51.919945303853339 ] } },
{ "type": "Feature", "properties": { "ID": 758, "Name": "SP AM PASTORENBUSCH", "Groesse": 3185.0, "Bereich": "A", "Ball": 2, "Skater": null, "Streetball": "ja", "Rechtswert": 3401082.0, "Hochwert": 5762924.0, "raster": 1 }, "geometry": { "type": "Point", "coordinates": [ 7.558854947870357, 51.991382361476838 ] } },
{ "type": "Feature", "properties": { "ID": 759, "Name": "SP AM PASTORENBUSCH", "Groesse": 3185.0, "Bereich": "A", "Ball": 2, "Skater": null, "Streetball": "ja", "Rechtswert": 3401082.0, "Hochwert": 5762924.0, "raster": 1 }, "geometry": { "type": "Point", "coordinates": [ 7.558854947870357, 51.991382361476838 ] } },
{ "type": "Feature", "properties": { "ID": 760, "Name": "SP AM PASTORENBUSCH", "Groesse": 3185.0, "Bereich": "A", "Ball": 2, "Skater": null, "Streetball": "ja", "Rechtswert": 3401082.0, "Hochwert": 5762924.0, "raster": 1 }, "geometry": { "type": "Point", "coordinates": [ 7.558854947870357, 51.991382361476838 ] } },
{ "type": "Feature", "properties": { "ID": 761, "Name": "SP UFERSTRASSE", "Groesse": 444.0, "Bereich": "B/C", "Ball": 0, "Skater": null, "Streetball": null, "Rechtswert": 3410990.0, "Hochwert": 5754464.0, "raster": 1 }, "geometry": { "type": "Point", "coordinates": [ 7.7052465528841, 51.917042876721631 ] } },
{ "type": "Feature", "properties": { "ID": 762, "Name": "SP AM STEINTOR", "Groesse": 450.0, "Bereich": "B/C", "Ball": 0, "Skater": null, "Streetball": null, "Rechtswert": 3412657.0, "Hochwert": 5754266.0, "raster": 1 }, "geometry": { "type": "Point", "coordinates": [ 7.729518809473588, 51.915527563166641 ] } },
{ "type": "Feature", "properties": { "ID": 763, "Name": "SP LIBORISTRASSE", "Groesse": 1290.0, "Bereich": "C", "Ball": 0, "Skater": null, "Streetball": null, "Rechtswert": 3407482.0, "Hochwert": 5758648.0, "raster": 1 }, "geometry": { "type": "Point", "coordinates": [ 7.653151170529417, 51.954064806697431 ] } },
{ "type": "Feature", "properties": { "ID": 764, "Name": "SP KIRCHHOFFWEG", "Groesse": 600.0, "Bereich": "B/C", "Ball": 0, "Skater": null, "Streetball": null, "Rechtswert": 3403721.0, "Hochwert": 5762677.0000000009, "raster": 1 }, "geometry": { "type": "Point", "coordinates": [ 7.597331189847859, 51.989626496079893 ] } },
{ "type": "Feature", "properties": { "ID": 765, "Name": "SP AM HOF HESSELMANN", "Groesse": 1494.0, "Bereich": "B/C", "Ball": 0, "Skater": null, "Streetball": null, "Rechtswert": 3402251.0, "Hochwert": 5756247.0, "raster": 1 }, "geometry": { "type": "Point", "coordinates": [ 7.577766253596716, 51.931598449397072 ] } },
{ "type": "Feature", "properties": { "ID": 766, "Name": "SP RUBENSSTRASSE", "Groesse": 425.0, "Bereich": "B/C", "Ball": 0, "Skater": null, "Streetball": null, "Rechtswert": 3408900.0, "Hochwert": 5752849.0, "raster": 1 }, "geometry": { "type": "Point", "coordinates": [ 7.67530528166325, 51.902194145654768 ] } },
{ "type": "Feature", "properties": { "ID": 767, "Name": "SP ALTE SCHANZE", "Groesse": 1030.0, "Bereich": "B/C", "Ball": 0, "Skater": null, "Streetball": null, "Rechtswert": 3403231.0, "Hochwert": 5763829.0000000009, "raster": 1 }, "geometry": { "type": "Point", "coordinates": [ 7.589875344623269, 51.999891765278768 ] } },
{ "type": "Feature", "properties": { "ID": 768, "Name": "SP KLEIHORSTSTRASSE   (BALLSPIELPLATZ)", "Groesse": 1151.0, "Bereich": "A+B/C", "Ball": 1, "Skater": null, "Streetball": null, "Rechtswert": 3403790.0, "Hochwert": 5757007.0, "raster": 1 }, "geometry": { "type": "Point", "coordinates": [ 7.599922196553845, 51.938694841832962 ] } },
{ "type": "Feature", "properties": { "ID": 769, "Name": "SP ELISABETH-KIRCHPLATZ", "Groesse": 886.0, "Bereich": "B/C", "Ball": 0, "Skater": null, "Streetball": null, "Rechtswert": 3406675.0, "Hochwert": 5758738.0, "raster": 1 }, "geometry": { "type": "Point", "coordinates": [ 7.64139147826862, 51.954738726921612 ] } },
{ "type": "Feature", "properties": { "ID": 770, "Name": "SP AASEE: MECKLENBECKER STRASSE", "Groesse": 866.0, "Bereich": "B/C", "Ball": 0, "Skater": null, "Streetball": null, "Rechtswert": 3403962.0, "Hochwert": 5757922.0, "raster": 1 }, "geometry": { "type": "Point", "coordinates": [ 7.602167193339483, 51.946945627927164 ] } },
{ "type": "Feature", "properties": { "ID": 771, "Name": "SP AASEE: MECKLENBECKER STRASSE", "Groesse": 866.0, "Bereich": "B/C", "Ball": 0, "Skater": null, "Streetball": null, "Rechtswert": 3403962.0, "Hochwert": 5757922.0, "raster": 1 }, "geometry": { "type": "Point", "coordinates": [ 7.602167193339483, 51.946945627927164 ] } },
{ "type": "Feature", "properties": { "ID": 772, "Name": "SP VON-OSSIETZKY-STRASSE", "Groesse": 1790.0, "Bereich": "A+B/C", "Ball": 0, "Skater": null, "Streetball": null, "Rechtswert": 3403876.0, "Hochwert": 5757413.0, "raster": 1 }, "geometry": { "type": "Point", "coordinates": [ 7.601058977683404, 51.942357523590246 ] } },
{ "type": "Feature", "properties": { "ID": 773, "Name": "SP AM HAUPTZENTRUM KINDERHAUS", "Groesse": 800.0, "Bereich": "B/C", "Ball": 0, "Skater": null, "Streetball": null, "Rechtswert": 3404283.0, "Hochwert": 5763249.0, "raster": 1 }, "geometry": { "type": "Point", "coordinates": [ 7.605350519291345, 51.994862820707368 ] } },
{ "type": "Feature", "properties": { "ID": 774, "Name": "SP BIEDERLACKWEG", "Groesse": 660.0, "Bereich": "B/C", "Ball": 2, "Skater": null, "Streetball": "ja", "Rechtswert": 3407964.0, "Hochwert": 5756314.0, "raster": 1 }, "geometry": { "type": "Point", "coordinates": [ 7.660784516084881, 51.93317367642301 ] } },
{ "type": "Feature", "properties": { "ID": 775, "Name": "SP GESCHERWEG - WEST", "Groesse": 820.0, "Bereich": "B/C", "Ball": 0, "Skater": null, "Streetball": null, "Rechtswert": 3402048.0, "Hochwert": 5761005.0, "raster": 1 }, "geometry": { "type": "Point", "coordinates": [ 7.573460991567827, 51.974311913652159 ] } },
{ "type": "Feature", "properties": { "ID": 776, "Name": "SP GESCHERWEG - WEST", "Groesse": 820.0, "Bereich": "B/C", "Ball": 0, "Skater": null, "Streetball": null, "Rechtswert": 3402048.0, "Hochwert": 5761005.0, "raster": 1 }, "geometry": { "type": "Point", "coordinates": [ 7.573460991567827, 51.974311913652159 ] } },
{ "type": "Feature", "properties": { "ID": 777, "Name": "SP AASEEMARKT, GOERDELERSTRASSE", "Groesse": 1500.0, "Bereich": "B/C", "Ball": 0, "Skater": null, "Streetball": null, "Rechtswert": 3404322.0, "Hochwert": 5757750.0, "raster": 1 }, "geometry": { "type": "Point", "coordinates": [ 7.60744917021727, 51.945462222686331 ] } },
{ "type": "Feature", "properties": { "ID": 778, "Name": "SP AASEEMARKT, GOERDELERSTRASSE", "Groesse": 1500.0, "Bereich": "B/C", "Ball": 0, "Skater": null, "Streetball": null, "Rechtswert": 3404322.0, "Hochwert": 5757750.0, "raster": 1 }, "geometry": { "type": "Point", "coordinates": [ 7.60744917021727, 51.945462222686331 ] } },
{ "type": "Feature", "properties": { "ID": 779, "Name": "SP LEGDENWEG-OST", "Groesse": 1480.0, "Bereich": "B/C", "Ball": 0, "Skater": null, "Streetball": null, "Rechtswert": 3401703.9999999995, "Hochwert": 5761374.0, "raster": 1 }, "geometry": { "type": "Point", "coordinates": [ 7.568350917487255, 51.977566552699471 ] } },
{ "type": "Feature", "properties": { "ID": 780, "Name": "SP MINDENER STRASSE", "Groesse": 1004.0, "Bereich": "B/C", "Ball": 2, "Skater": null, "Streetball": "ja", "Rechtswert": 3407167.0, "Hochwert": 5758945.0, "raster": 1 }, "geometry": { "type": "Point", "coordinates": [ 7.648490314458638, 51.956680891497655 ] } },
{ "type": "Feature", "properties": { "ID": 781, "Name": "SP ALBERT-SCHWEITZER-SCHULE", "Groesse": 430.0, "Bereich": "B/C", "Ball": 0, "Skater": null, "Streetball": "ja", "Rechtswert": 3407759.0, "Hochwert": 5759212.0, "raster": 1 }, "geometry": { "type": "Point", "coordinates": [ 7.657028016207658, 51.959178314471785 ] } },
{ "type": "Feature", "properties": { "ID": 782, "Name": "SP RIGAWEG", "Groesse": 1719.0, "Bereich": "B/C", "Ball": 0, "Skater": null, "Streetball": null, "Rechtswert": 3404463.0, "Hochwert": 5761082.0, "raster": 1 }, "geometry": { "type": "Point", "coordinates": [ 7.608573355678538, 51.975423805769559 ] } },
{ "type": "Feature", "properties": { "ID": 783, "Name": "SP THOMAS-MORUS-SCHULE", "Groesse": 517.0, "Bereich": "B/C", "Ball": 0, "Skater": null, "Streetball": "Balltrichter", "Rechtswert": 3406955.0, "Hochwert": 5760927.0, "raster": 1 }, "geometry": { "type": "Point", "coordinates": [ 7.644870765469738, 51.974453624040933 ] } },
{ "type": "Feature", "properties": { "ID": 784, "Name": "SP SAMLANDUFER", "Groesse": 2659.0, "Bereich": "B/C", "Ball": 0, "Skater": null, "Streetball": null, "Rechtswert": 3407955.0, "Hochwert": 5762966.0, "raster": 1 }, "geometry": { "type": "Point", "coordinates": [ 7.658872719358719, 51.9929403359086 ] } },
{ "type": "Feature", "properties": { "ID": 785, "Name": "SP SAMLANDUFER", "Groesse": 2659.0, "Bereich": "B/C", "Ball": 0, "Skater": null, "Streetball": null, "Rechtswert": 3407955.0, "Hochwert": 5762966.0, "raster": 1 }, "geometry": { "type": "Point", "coordinates": [ 7.658872719358719, 51.9929403359086 ] } },
{ "type": "Feature", "properties": { "ID": 786, "Name": "SP IDASCHULE, VÖRNSTE ESCH", "Groesse": 679.0, "Bereich": "B/C", "Ball": 0, "Skater": null, "Streetball": null, "Rechtswert": 3408782.0, "Hochwert": 5756202.9999999991, "raster": 1 }, "geometry": { "type": "Point", "coordinates": [ 7.672703748158415, 51.932310902251444 ] } },
{ "type": "Feature", "properties": { "ID": 787, "Name": "SP SANKT-JOSEF-KIRCHPLATZ", "Groesse": null, "Bereich": null, "Ball": null, "Skater": null, "Streetball": null, "Rechtswert": 3405662.0, "Hochwert": 5758167.0, "raster": 1 }, "geometry": { "type": "Point", "coordinates": [ 7.626817033833431, 51.94943758319296 ] } },
{ "type": "Feature", "properties": { "ID": 788, "Name": "SP ALBACHTENER STRASSE", "Groesse": 2430.0, "Bereich": "A+B/C", "Ball": 2, "Skater": null, "Streetball": null, "Rechtswert": 3398557.0, "Hochwert": 5755702.0, "raster": 1 }, "geometry": { "type": "Point", "coordinates": [ 7.524238488586867, 51.92604142348155 ] } },
{ "type": "Feature", "properties": { "ID": 789, "Name": "SP BODELSCHWINGHSTRASSE", "Groesse": 1012.0, "Bereich": "B/C", "Ball": 0, "Skater": null, "Streetball": null, "Rechtswert": 3406943.0, "Hochwert": 5753505.0, "raster": 1 }, "geometry": { "type": "Point", "coordinates": [ 7.646702601981339, 51.907765160397261 ] } },
{ "type": "Feature", "properties": { "ID": 790, "Name": "SP BOELESTRASSE", "Groesse": 3300.0, "Bereich": "A", "Ball": 2, "Skater": null, "Streetball": null, "Rechtswert": 3410111.0, "Hochwert": 5754479.0, "raster": 1 }, "geometry": { "type": "Point", "coordinates": [ 7.692470616950977, 51.917036559039524 ] } },
{ "type": "Feature", "properties": { "ID": 791, "Name": "SP LANGE KUHLE", "Groesse": 4349.0, "Bereich": "A", "Ball": 2, "Skater": null, "Streetball": "ja", "Rechtswert": 3404487.9999999995, "Hochwert": 5750943.0, "raster": 1 }, "geometry": { "type": "Point", "coordinates": [ 7.611748505744249, 51.884330603995785 ] } },
{ "type": "Feature", "properties": { "ID": 640, "Name": "SP HOPPENGARTEN-SÜD", "Groesse": 2965.0, "Bereich": "A", "Ball": 0, "Skater": null, "Streetball": null, "Rechtswert": 3407335.9999999995, "Hochwert": 5760933.0, "raster": 1 }, "geometry": { "type": "Point", "coordinates": [ 7.650412118939466, 51.974571139614049 ] } },
{ "type": "Feature", "properties": { "ID": 641, "Name": "SP AM HORNBACH", "Groesse": 2666.0, "Bereich": "A", "Ball": 2, "Skater": "ja", "Streetball": "ja", "Rechtswert": 3411970.0, "Hochwert": 5763978.9999999991, "raster": 1 }, "geometry": { "type": "Point", "coordinates": [ 7.71705026269724, 52.002692752824942 ] } },
{ "type": "Feature", "properties": { "ID": 642, "Name": "SP VOGELROHRSHEIDE", "Groesse": 1995.0, "Bereich": "B/C", "Ball": 2, "Skater": null, "Streetball": "ja", "Rechtswert": 3409391.0, "Hochwert": 5754516.0, "raster": 1 }, "geometry": { "type": "Point", "coordinates": [ 7.68199921178662, 51.917252403254686 ] } },
{ "type": "Feature", "properties": { "ID": 643, "Name": "SP KUPFERBRINK", "Groesse": 1077.0, "Bereich": "B/C", "Ball": 0, "Skater": null, "Streetball": null, "Rechtswert": 3411926.0, "Hochwert": 5755060.0, "raster": 1 }, "geometry": { "type": "Point", "coordinates": [ 7.718694605670035, 51.922546816441418 ] } },
{ "type": "Feature", "properties": { "ID": 644, "Name": "SP BENTELERSTRASSE", "Groesse": 777.0, "Bereich": "B/C", "Ball": 0, "Skater": null, "Streetball": null, "Rechtswert": 3403361.0, "Hochwert": 5760899.0, "raster": 1 }, "geometry": { "type": "Point", "coordinates": [ 7.592592418330263, 51.973589215804864 ] } },
{ "type": "Feature", "properties": { "ID": 645, "Name": "SP HÄGER", "Groesse": 1038.0, "Bereich": "B/C", "Ball": 0, "Skater": null, "Streetball": null, "Rechtswert": 3401380.0, "Hochwert": 5766133.0000000009, "raster": 1 }, "geometry": { "type": "Point", "coordinates": [ 7.562269092577685, 52.020266725327417 ] } },
{ "type": "Feature", "properties": { "ID": 646, "Name": "SP MEMMERTWEG-NORD", "Groesse": 1137.0, "Bereich": "A", "Ball": 0, "Skater": null, "Streetball": null, "Rechtswert": 3405170.0, "Hochwert": 5763507.0, "raster": 1 }, "geometry": { "type": "Point", "coordinates": [ 7.618189404774214, 51.997332943376819 ] } },
{ "type": "Feature", "properties": { "ID": 647, "Name": "SP MEMMERTWEG-NORD", "Groesse": 1137.0, "Bereich": "A", "Ball": 0, "Skater": null, "Streetball": null, "Rechtswert": 3405170.0, "Hochwert": 5763507.0, "raster": 1 }, "geometry": { "type": "Point", "coordinates": [ 7.618189404774214, 51.997332943376819 ] } },
{ "type": "Feature", "properties": { "ID": 648, "Name": "SP AM KALVARIENBERG", "Groesse": 816.0, "Bereich": "B/C", "Ball": 0, "Skater": null, "Streetball": null, "Rechtswert": 3406863.0, "Hochwert": 5753048.0, "raster": 1 }, "geometry": { "type": "Point", "coordinates": [ 7.645663843571539, 51.903645645090272 ] } },
{ "type": "Feature", "properties": { "ID": 649, "Name": "SP CANISIUSWEG", "Groesse": 981.0, "Bereich": "B/C", "Ball": 0, "Skater": null, "Streetball": null, "Rechtswert": 3403703.0, "Hochwert": 5757166.0, "raster": 1 }, "geometry": { "type": "Point", "coordinates": [ 7.598613036694971, 51.940108387862963 ] } },
{ "type": "Feature", "properties": { "ID": 650, "Name": "SP NISINGHOVERWEG", "Groesse": 537.0, "Bereich": "B/C", "Ball": 0, "Skater": null, "Streetball": null, "Rechtswert": 3405626.0, "Hochwert": 5753337.0, "raster": 1 }, "geometry": { "type": "Point", "coordinates": [ 7.627616743181923, 51.90603430651489 ] } },
{ "type": "Feature", "properties": { "ID": 651, "Name": "SP STAUFENSTRASSE", "Groesse": 473.0, "Bereich": "B/C", "Ball": 0, "Skater": null, "Streetball": null, "Rechtswert": 3406851.0, "Hochwert": 5759913.0, "raster": 1 }, "geometry": { "type": "Point", "coordinates": [ 7.643632575718471, 51.965325508519285 ] } },
{ "type": "Feature", "properties": { "ID": 652, "Name": "SP DAHLWEG", "Groesse": 4474.0, "Bereich": "A+B/C", "Ball": 2, "Skater": null, "Streetball": null, "Rechtswert": 3405604.0, "Hochwert": 5757500.0, "raster": 1 }, "geometry": { "type": "Point", "coordinates": [ 7.626156662622221, 51.943434829465922 ] } },
{ "type": "Feature", "properties": { "ID": 653, "Name": "SP SEPPENRADEWEG", "Groesse": 719.0, "Bereich": "B/C", "Ball": 0, "Skater": null, "Streetball": null, "Rechtswert": 3404029.0, "Hochwert": 5756065.0, "raster": 1 }, "geometry": { "type": "Point", "coordinates": [ 7.603658977980022, 51.930272375816159 ] } },
{ "type": "Feature", "properties": { "ID": 654, "Name": "SP AM BURLOH", "Groesse": 750.0, "Bereich": "B/C", "Ball": 0, "Skater": null, "Streetball": null, "Rechtswert": 3404327.9999999995, "Hochwert": 5763165.0, "raster": 1 }, "geometry": { "type": "Point", "coordinates": [ 7.606028905270353, 51.994115850300531 ] } },
{ "type": "Feature", "properties": { "ID": 655, "Name": "SP GIEVENBACHTAL", "Groesse": 1237.0, "Bereich": "A+B/C", "Ball": 0, "Skater": null, "Streetball": null, "Rechtswert": 3401833.0, "Hochwert": 5760705.0, "raster": 1 }, "geometry": { "type": "Point", "coordinates": [ 7.570418892731081, 51.971578617130874 ] } },
{ "type": "Feature", "properties": { "ID": 656, "Name": "SP GIEVENBACHTAL", "Groesse": 1237.0, "Bereich": "A+B/C", "Ball": 0, "Skater": null, "Streetball": null, "Rechtswert": 3401833.0, "Hochwert": 5760705.0, "raster": 1 }, "geometry": { "type": "Point", "coordinates": [ 7.570418892731081, 51.971578617130874 ] } },
{ "type": "Feature", "properties": { "ID": 657, "Name": "SP GRÜNER GRUND", "Groesse": 2199.0, "Bereich": "B/C", "Ball": 2, "Skater": null, "Streetball": null, "Rechtswert": 3404754.0, "Hochwert": 5757251.0, "raster": 1 }, "geometry": { "type": "Point", "coordinates": [ 7.613868053059674, 51.941052852429607 ] } },
{ "type": "Feature", "properties": { "ID": 658, "Name": "SP GRÜNER GRUND", "Groesse": 2199.0, "Bereich": "B/C", "Ball": 2, "Skater": null, "Streetball": null, "Rechtswert": 3404754.0, "Hochwert": 5757251.0, "raster": 1 }, "geometry": { "type": "Point", "coordinates": [ 7.613868053059674, 51.941052852429607 ] } },
{ "type": "Feature", "properties": { "ID": 659, "Name": "SP MEYERBEERSTRASSE", "Groesse": 1500.0, "Bereich": "A", "Ball": 0, "Skater": null, "Streetball": "ja", "Rechtswert": 3402388.0, "Hochwert": 5755726.0, "raster": 1 }, "geometry": { "type": "Point", "coordinates": [ 7.57990507327482, 51.926941422843612 ] } },
{ "type": "Feature", "properties": { "ID": 660, "Name": "SP GRÜNER FINGER", "Groesse": 233.0, "Bereich": "A", "Ball": 0, "Skater": "ja", "Streetball": "ja", "Rechtswert": 3401821.0, "Hochwert": 5760010.9999999991, "raster": 1 }, "geometry": { "type": "Point", "coordinates": [ 7.570442579012321, 51.965341155670082 ] } },
{ "type": "Feature", "properties": { "ID": 661, "Name": "SP LINDENBREIE", "Groesse": 1700.0, "Bereich": "B/C", "Ball": 0, "Skater": null, "Streetball": null, "Rechtswert": 3401604.0, "Hochwert": 5759322.0, "raster": 1 }, "geometry": { "type": "Point", "coordinates": [ 7.567483493392976, 51.95911240219715 ] } },
{ "type": "Feature", "properties": { "ID": 662, "Name": "SP GRÜNER GRUND", "Groesse": 2199.0, "Bereich": "B/C", "Ball": 2, "Skater": null, "Streetball": null, "Rechtswert": 3404754.0, "Hochwert": 5757251.0, "raster": 1 }, "geometry": { "type": "Point", "coordinates": [ 7.613868053059674, 51.941052852429607 ] } },
{ "type": "Feature", "properties": { "ID": 663, "Name": "SP GRÜNER GRUND", "Groesse": 2199.0, "Bereich": "B/C", "Ball": 2, "Skater": null, "Streetball": null, "Rechtswert": 3404754.0, "Hochwert": 5757251.0, "raster": 1 }, "geometry": { "type": "Point", "coordinates": [ 7.613868053059674, 51.941052852429607 ] } },
{ "type": "Feature", "properties": { "ID": 664, "Name": "SP LEGDENWEG-WEST", "Groesse": 1489.0, "Bereich": "B/C", "Ball": 0, "Skater": "ja", "Streetball": "ja", "Rechtswert": 3401351.0, "Hochwert": 5761262.0, "raster": 1 }, "geometry": { "type": "Point", "coordinates": [ 7.563247296616542, 51.976497772909511 ] } },
{ "type": "Feature", "properties": { "ID": 665, "Name": "SP SPICHERNSTRASSE", "Groesse": 2150.0, "Bereich": "A+B/C", "Ball": 2, "Skater": null, "Streetball": null, "Rechtswert": 3405397.0, "Hochwert": 5756652.0, "raster": 1 }, "geometry": { "type": "Point", "coordinates": [ 7.623380266063228, 51.935780511172887 ] } },
{ "type": "Feature", "properties": { "ID": 666, "Name": "SP IM SEIHOF", "Groesse": 1925.0, "Bereich": null, "Ball": 0, "Skater": null, "Streetball": null, "Rechtswert": 3399469.0, "Hochwert": 5759038.0, "raster": 1 }, "geometry": { "type": "Point", "coordinates": [ 7.536517523634125, 51.95617920804473 ] } },
{ "type": "Feature", "properties": { "ID": 667, "Name": "SP SCHARNHORSTSTRASSE", "Groesse": 1072.0, "Bereich": "B/C", "Ball": 0, "Skater": null, "Streetball": null, "Rechtswert": 3404575.0, "Hochwert": 5758506.0, "raster": 1 }, "geometry": { "type": "Point", "coordinates": [ 7.610917836753242, 51.952298173744879 ] } },
{ "type": "Feature", "properties": { "ID": 668, "Name": "SP WESTERHEIDE             (BALLSPIELPLATZ)", "Groesse": 800.0, "Bereich": "B/C", "Ball": 1, "Skater": null, "Streetball": null, "Rechtswert": 3409185.0, "Hochwert": 5766983.0, "raster": 1 }, "geometry": { "type": "Point", "coordinates": [ 7.675710806633534, 52.029235323602023 ] } },
{ "type": "Feature", "properties": { "ID": 669, "Name": "SP WACHOLDERWEG", "Groesse": 748.0, "Bereich": "B/C", "Ball": 0, "Skater": null, "Streetball": null, "Rechtswert": 3411573.0, "Hochwert": 5763850.9999999991, "raster": 1 }, "geometry": { "type": "Point", "coordinates": [ 7.711303742915354, 52.001479610277265 ] } },
{ "type": "Feature", "properties": { "ID": 670, "Name": "SP ZWI-SCHULMANN-WEG", "Groesse": 2000.0, "Bereich": "B/C", "Ball": 0, "Skater": null, "Streetball": null, "Rechtswert": 3409284.0, "Hochwert": 5756359.0, "raster": 1 }, "geometry": { "type": "Point", "coordinates": [ 7.679959230326767, 51.933794570966391 ] } },
{ "type": "Feature", "properties": { "ID": 671, "Name": "SP GALLENKAMP", "Groesse": 727.0, "Bereich": "B/C", "Ball": 0, "Skater": null, "Streetball": null, "Rechtswert": 3408208.0, "Hochwert": 5759210.0, "raster": 1 }, "geometry": { "type": "Point", "coordinates": [ 7.663558633619825, 51.959234585969647 ] } },
{ "type": "Feature", "properties": { "ID": 672, "Name": "SP HERDINGSTRASSE", "Groesse": 1784.0, "Bereich": "B/C", "Ball": 0, "Skater": null, "Streetball": null, "Rechtswert": 3405717.0, "Hochwert": 5757770.0, "raster": 1 }, "geometry": { "type": "Point", "coordinates": [ 7.627725525527729, 51.94587989776106 ] } },
{ "type": "Feature", "properties": { "ID": 673, "Name": "SP SCHÜRBUSCH", "Groesse": 944.0, "Bereich": "B/C", "Ball": 0, "Skater": null, "Streetball": null, "Rechtswert": 3402811.0, "Hochwert": 5755993.0, "raster": 1 }, "geometry": { "type": "Point", "coordinates": [ 7.585977089163332, 51.929414306430473 ] } },
{ "type": "Feature", "properties": { "ID": 674, "Name": "SP GOLDAPER STRASSE", "Groesse": 3048.0, "Bereich": "B/C", "Ball": 2, "Skater": null, "Streetball": null, "Rechtswert": 3400071.0, "Hochwert": 5758570.0, "raster": 1 }, "geometry": { "type": "Point", "coordinates": [ 7.545407714485671, 51.952082843968249 ] } },
{ "type": "Feature", "properties": { "ID": 675, "Name": "SP DIRK-VON-MERVELDT-STRASSE", "Groesse": 2082.0, "Bereich": "A", "Ball": 2, "Skater": null, "Streetball": "ja", "Rechtswert": 3412276.0, "Hochwert": 5754651.0, "raster": 1 }, "geometry": { "type": "Point", "coordinates": [ 7.723884953601716, 51.918927054659513 ] } },
{ "type": "Feature", "properties": { "ID": 676, "Name": "SP PAUL-KLEE-WEG", "Groesse": 1000.0, "Bereich": "B/C", "Ball": 2, "Skater": null, "Streetball": null, "Rechtswert": 3409223.9999999995, "Hochwert": 5752731.0, "raster": 1 }, "geometry": { "type": "Point", "coordinates": [ 7.68004252390372, 51.901186742734403 ] } },
{ "type": "Feature", "properties": { "ID": 677, "Name": "SP DREIZEHNERSTRASSE", "Groesse": 1475.0, "Bereich": "A", "Ball": 0, "Skater": null, "Streetball": null, "Rechtswert": 3404593.0, "Hochwert": 5762062.0, "raster": 1 }, "geometry": { "type": "Point", "coordinates": [ 7.610192439468959, 51.984251205950997 ] } },
{ "type": "Feature", "properties": { "ID": 792, "Name": "SP ARNETHSTRASSE", "Groesse": 386.0, "Bereich": "C", "Ball": 0, "Skater": null, "Streetball": null, "Rechtswert": 3403382.0, "Hochwert": 5763714.0, "raster": 1 }, "geometry": { "type": "Point", "coordinates": [ 7.592105742438696, 51.998884802704737 ] } },
{ "type": "Feature", "properties": { "ID": 793, "Name": "SP SERVATIIPLATZ", "Groesse": 764.0, "Bereich": "B/C", "Ball": 0, "Skater": null, "Streetball": null, "Rechtswert": 3406225.0, "Hochwert": 5759394.0, "raster": 1 }, "geometry": { "type": "Point", "coordinates": [ 7.634668689453799, 51.960557190068918 ] } },
{ "type": "Feature", "properties": { "ID": 794, "Name": "SP VERDISTRASSE", "Groesse": 1205.0, "Bereich": "B/C", "Ball": 0, "Skater": null, "Streetball": null, "Rechtswert": 3406897.0, "Hochwert": 5753883.0, "raster": 1 }, "geometry": { "type": "Point", "coordinates": [ 7.645932315310467, 51.911153818232442 ] } },
{ "type": "Feature", "properties": { "ID": 795, "Name": "SP DIEKBREE", "Groesse": 700.0, "Bereich": "B/C", "Ball": 0, "Skater": null, "Streetball": null, "Rechtswert": 3411096.0000000005, "Hochwert": 5761738.9999999991, "raster": 1 }, "geometry": { "type": "Point", "coordinates": [ 7.704906877545777, 51.982426942323237 ] } },
{ "type": "Feature", "properties": { "ID": 796, "Name": "SP BOCKHORSTSTRASSE", "Groesse": 486.0, "Bereich": "B/C", "Ball": 0, "Skater": null, "Streetball": null, "Rechtswert": 3408902.0, "Hochwert": 5753185.0, "raster": 1 }, "geometry": { "type": "Point", "coordinates": [ 7.675245604966269, 51.9052134780244 ] } },
{ "type": "Feature", "properties": { "ID": 797, "Name": "SP STREETBALLFLÄCHE NORMANNENWEG", "Groesse": 260.0, "Bereich": "B", "Ball": 0, "Skater": null, "Streetball": "ja", "Rechtswert": 3408502.0, "Hochwert": 5754734.0, "raster": 1 }, "geometry": { "type": "Point", "coordinates": [ 7.669024078492641, 51.919065892738388 ] } },
{ "type": "Feature", "properties": { "ID": 798, "Name": "SP TENGENKAMP", "Groesse": 2908.0, "Bereich": "B/C", "Ball": 0, "Skater": null, "Streetball": null, "Rechtswert": 3404193.0, "Hochwert": 5750162.0, "raster": 1 }, "geometry": { "type": "Point", "coordinates": [ 7.607682000911746, 51.877262788244586 ] } },
{ "type": "Feature", "properties": { "ID": 799, "Name": "SP BIRKENHEIDE I           (BALLSPIELPLATZ)", "Groesse": 2534.0, "Bereich": "A", "Ball": 1, "Skater": null, "Streetball": null, "Rechtswert": 3409461.0, "Hochwert": 5755017.0, "raster": 1 }, "geometry": { "type": "Point", "coordinates": [ 7.682884715854524, 51.921765335571614 ] } },
{ "type": "Feature", "properties": { "ID": 800, "Name": "SP HEROLDSTRASSE (HEIDBUSCH)", "Groesse": 2700.0, "Bereich": "A+B/C", "Ball": 2, "Skater": null, "Streetball": null, "Rechtswert": 3401977.0, "Hochwert": 5754948.0, "raster": 1 }, "geometry": { "type": "Point", "coordinates": [ 7.574153461316571, 51.91987914392044 ] } },
{ "type": "Feature", "properties": { "ID": 801, "Name": "SP GIEVENBACHTAL", "Groesse": 1237.0, "Bereich": "A+B/C", "Ball": 0, "Skater": null, "Streetball": null, "Rechtswert": 3401833.0, "Hochwert": 5760705.0, "raster": 1 }, "geometry": { "type": "Point", "coordinates": [ 7.570418892731081, 51.971578617130874 ] } },
{ "type": "Feature", "properties": { "ID": 802, "Name": "SP GIEVENBACHTAL", "Groesse": 1237.0, "Bereich": "A+B/C", "Ball": 0, "Skater": null, "Streetball": null, "Rechtswert": 3401833.0, "Hochwert": 5760705.0, "raster": 1 }, "geometry": { "type": "Point", "coordinates": [ 7.570418892731081, 51.971578617130874 ] } },
{ "type": "Feature", "properties": { "ID": 803, "Name": "SP POTSTIEGE", "Groesse": 1021.0, "Bereich": "B/C", "Ball": 0, "Skater": null, "Streetball": null, "Rechtswert": 3402455.0, "Hochwert": 5759949.0, "raster": 1 }, "geometry": { "type": "Point", "coordinates": [ 7.579681761887605, 51.964895620697078 ] } },
{ "type": "Feature", "properties": { "ID": 804, "Name": "SP POTSTIEGE", "Groesse": 1021.0, "Bereich": "B/C", "Ball": 0, "Skater": null, "Streetball": null, "Rechtswert": 3402455.0, "Hochwert": 5759949.0, "raster": 1 }, "geometry": { "type": "Point", "coordinates": [ 7.579681761887605, 51.964895620697078 ] } },
{ "type": "Feature", "properties": { "ID": 805, "Name": "SP ÜBERWASSERSCHULE", "Groesse": 800.0, "Bereich": "B/C", "Ball": 0, "Skater": null, "Streetball": null, "Rechtswert": 3405233.0, "Hochwert": 5759876.0, "raster": 1 }, "geometry": { "type": "Point", "coordinates": [ 7.620108354275642, 51.964719832301995 ] } },
{ "type": "Feature", "properties": { "ID": 806, "Name": "SP MATTHIAS-CLAUDIUS-SCHULE", "Groesse": 329.0, "Bereich": "B/C", "Ball": 0, "Skater": null, "Streetball": null, "Rechtswert": 3404630.0, "Hochwert": 5757020.0, "raster": 1 }, "geometry": { "type": "Point", "coordinates": [ 7.612129403522562, 51.938956129489604 ] } },
{ "type": "Feature", "properties": { "ID": 807, "Name": "SP MATTHIAS-CLAUDIUS-SCHULE", "Groesse": 329.0, "Bereich": "B/C", "Ball": 0, "Skater": null, "Streetball": null, "Rechtswert": 3404630.0, "Hochwert": 5757020.0, "raster": 1 }, "geometry": { "type": "Point", "coordinates": [ 7.612129403522562, 51.938956129489604 ] } },
{ "type": "Feature", "properties": { "ID": 808, "Name": "SP ZUMSANDEPLATZ", "Groesse": 2392.0, "Bereich": "A+B/C", "Ball": 2, "Skater": null, "Streetball": null, "Rechtswert": 3406700.0, "Hochwert": 5759258.0, "raster": 1 }, "geometry": { "type": "Point", "coordinates": [ 7.641613958215336, 51.959415082833686 ] } },
{ "type": "Feature", "properties": { "ID": 809, "Name": "SP AN DER MEERWIESE-SÜD", "Groesse": null, "Bereich": null, "Ball": null, "Skater": null, "Streetball": null, "Rechtswert": 3407242.0, "Hochwert": 5762218.9999999991, "raster": 1 }, "geometry": { "type": "Point", "coordinates": [ 7.648697234239202, 51.98611008177302 ] } },
{ "type": "Feature", "properties": { "ID": 810, "Name": "SP AN DER MEERWIESE-SÜD", "Groesse": null, "Bereich": null, "Ball": null, "Skater": null, "Streetball": null, "Rechtswert": 3407242.0, "Hochwert": 5762218.9999999991, "raster": 1 }, "geometry": { "type": "Point", "coordinates": [ 7.648697234239202, 51.98611008177302 ] } },
{ "type": "Feature", "properties": { "ID": 811, "Name": "SP WICHERNSTRASSE", "Groesse": 1510.0, "Bereich": "B/C", "Ball": 0, "Skater": null, "Streetball": null, "Rechtswert": 3405540.0, "Hochwert": 5760823.0, "raster": 1 }, "geometry": { "type": "Point", "coordinates": [ 7.624313436243197, 51.973280690130046 ] } },
{ "type": "Feature", "properties": { "ID": 812, "Name": "SP TRESCKOWSTRASSE", "Groesse": 800.0, "Bereich": "B/C", "Ball": 0, "Skater": null, "Streetball": "ja", "Rechtswert": 3403455.0, "Hochwert": 5756541.0, "raster": 1 }, "geometry": { "type": "Point", "coordinates": [ 7.595183100375281, 51.934449955115419 ] } },
{ "type": "Feature", "properties": { "ID": 813, "Name": "SP MARTIN-LUTHER-SCHULE", "Groesse": 500.0, "Bereich": "B/C", "Ball": 0, "Skater": null, "Streetball": null, "Rechtswert": 3405757.0, "Hochwert": 5760421.0, "raster": 1 }, "geometry": { "type": "Point", "coordinates": [ 7.627580598735562, 51.969705586984979 ] } },
{ "type": "Feature", "properties": { "ID": 814, "Name": "SP HANS-BREDOW-WEG", "Groesse": 5174.0, "Bereich": "A", "Ball": 0, "Skater": null, "Streetball": null, "Rechtswert": 3408711.9999999995, "Hochwert": 5759010.0, "raster": 1 }, "geometry": { "type": "Point", "coordinates": [ 7.670941731838306, 51.957520491579089 ] } },
{ "type": "Feature", "properties": { "ID": 815, "Name": "SP HEIDKÖTTERSWEG", "Groesse": 515.0, "Bereich": "B/C", "Ball": 0, "Skater": null, "Streetball": null, "Rechtswert": 3403428.0, "Hochwert": 5764005.0, "raster": 1 }, "geometry": { "type": "Point", "coordinates": [ 7.592693406186246, 52.001507338208633 ] } },
{ "type": "Feature", "properties": { "ID": 816, "Name": "SP TELGENWEG", "Groesse": 1628.0, "Bereich": "B/C", "Ball": 0, "Skater": null, "Streetball": null, "Rechtswert": 3411716.0, "Hochwert": 5763758.0, "raster": 1 }, "geometry": { "type": "Point", "coordinates": [ 7.713409412357207, 52.000666735632855 ] } },
{ "type": "Feature", "properties": { "ID": 817, "Name": "SP OSSENKAMPSTIEGE", "Groesse": 694.0, "Bereich": "B/C", "Ball": 0, "Skater": null, "Streetball": null, "Rechtswert": 3403308.0, "Hochwert": 5756609.0, "raster": 1 }, "geometry": { "type": "Point", "coordinates": [ 7.593027331895827, 51.935035420806685 ] } },
{ "type": "Feature", "properties": { "ID": 818, "Name": "SP AM BLÜTENHAIN", "Groesse": 681.0, "Bereich": "B/C", "Ball": 0, "Skater": null, "Streetball": null, "Rechtswert": 3398768.0, "Hochwert": 5755293.0, "raster": 1 }, "geometry": { "type": "Point", "coordinates": [ 7.527424913618309, 51.922405123119567 ] } },
{ "type": "Feature", "properties": { "ID": 819, "Name": "SP WIERLING", "Groesse": 1350.0, "Bereich": "B/C", "Ball": 0, "Skater": null, "Streetball": null, "Rechtswert": 3398456.0000000005, "Hochwert": 5755398.0, "raster": 1 }, "geometry": { "type": "Point", "coordinates": [ 7.522860341946387, 51.923291729314528 ] } },
{ "type": "Feature", "properties": { "ID": 820, "Name": "SP WIEDEIKEN", "Groesse": 830.0, "Bereich": "B/C", "Ball": 0, "Skater": null, "Streetball": null, "Rechtswert": 3404474.0, "Hochwert": 5750261.0000000009, "raster": 1 }, "geometry": { "type": "Point", "coordinates": [ 7.611733864205513, 51.878200467215386 ] } },
{ "type": "Feature", "properties": { "ID": 821, "Name": "SP MATTHIAS-CLAUDIUS-SCHULE", "Groesse": 329.0, "Bereich": "B/C", "Ball": 0, "Skater": null, "Streetball": null, "Rechtswert": 3404630.0, "Hochwert": 5757020.0, "raster": 1 }, "geometry": { "type": "Point", "coordinates": [ 7.612129403522562, 51.938956129489604 ] } },
{ "type": "Feature", "properties": { "ID": 822, "Name": "SP MATTHIAS-CLAUDIUS-SCHULE", "Groesse": 329.0, "Bereich": "B/C", "Ball": 0, "Skater": null, "Streetball": null, "Rechtswert": 3404630.0, "Hochwert": 5757020.0, "raster": 1 }, "geometry": { "type": "Point", "coordinates": [ 7.612129403522562, 51.938956129489604 ] } },
{ "type": "Feature", "properties": { "ID": 823, "Name": "SP FALGERSTRASSE", "Groesse": 1600.0, "Bereich": "B/C", "Ball": 2, "Skater": null, "Streetball": null, "Rechtswert": 3406006.0, "Hochwert": 5761116.0, "raster": 1 }, "geometry": { "type": "Point", "coordinates": [ 7.631012635568098, 51.975992198838263 ] } },
{ "type": "Feature", "properties": { "ID": 824, "Name": "SP FALGERSTRASSE", "Groesse": 1600.0, "Bereich": "B/C", "Ball": 2, "Skater": null, "Streetball": null, "Rechtswert": 3406006.0, "Hochwert": 5761116.0, "raster": 1 }, "geometry": { "type": "Point", "coordinates": [ 7.631012635568098, 51.975992198838263 ] } },
{ "type": "Feature", "properties": { "ID": 825, "Name": "SP VIVALDISTRASSE", "Groesse": null, "Bereich": null, "Ball": null, "Skater": null, "Streetball": null, "Rechtswert": 3406812.0, "Hochwert": 5761580.0, "raster": 1 }, "geometry": { "type": "Point", "coordinates": [ 7.642613188280913, 51.980296826393314 ] } },
{ "type": "Feature", "properties": { "ID": 826, "Name": "SP ARNIKAWEG", "Groesse": 1560.0, "Bereich": "B/C", "Ball": 0, "Skater": null, "Streetball": null, "Rechtswert": 3403931.0, "Hochwert": 5750709.0000000009, "raster": 1 }, "geometry": { "type": "Point", "coordinates": [ 7.603726457972006, 51.882132506719429 ] } },
{ "type": "Feature", "properties": { "ID": 827, "Name": "SP AASEE: MECKLENBECKER STRASSE", "Groesse": 866.0, "Bereich": "B/C", "Ball": 0, "Skater": null, "Streetball": null, "Rechtswert": 3403962.0, "Hochwert": 5757922.0, "raster": 1 }, "geometry": { "type": "Point", "coordinates": [ 7.602167193339483, 51.946945627927164 ] } },
{ "type": "Feature", "properties": { "ID": 828, "Name": "SP AASEE: MECKLENBECKER STRASSE", "Groesse": 866.0, "Bereich": "B/C", "Ball": 0, "Skater": null, "Streetball": null, "Rechtswert": 3403962.0, "Hochwert": 5757922.0, "raster": 1 }, "geometry": { "type": "Point", "coordinates": [ 7.602167193339483, 51.946945627927164 ] } },
{ "type": "Feature", "properties": { "ID": 829, "Name": "SP HÜNENBURG-MITTE", "Groesse": 800.0, "Bereich": "B/C", "Ball": 0, "Skater": null, "Streetball": null, "Rechtswert": 3405278.0, "Hochwert": 5753634.0, "raster": 1 }, "geometry": { "type": "Point", "coordinates": [ 7.622480054414623, 51.908643819506715 ] } },
{ "type": "Feature", "properties": { "ID": 830, "Name": "SP ANGELMODDER WEG", "Groesse": 1850.0, "Bereich": "A", "Ball": 2, "Skater": null, "Streetball": null, "Rechtswert": 3409991.9999999995, "Hochwert": 5755699.0, "raster": 1 }, "geometry": { "type": "Point", "coordinates": [ 7.69042286974905, 51.927979248327418 ] } },
{ "type": "Feature", "properties": { "ID": 678, "Name": "SP MIDDELKAMP (alt: OSTHUESHEIDE)", "Groesse": 497.0, "Bereich": "B/C", "Ball": 0, "Skater": null, "Streetball": null, "Rechtswert": 3409967.0, "Hochwert": 5753855.0, "raster": 1 }, "geometry": { "type": "Point", "coordinates": [ 7.690541228475071, 51.911406563559467 ] } },
{ "type": "Feature", "properties": { "ID": 679, "Name": "SP FLEIGESTRASSE", "Groesse": 270.0, "Bereich": "C", "Ball": 0, "Skater": null, "Streetball": null, "Rechtswert": 3405846.0, "Hochwert": 5753439.0, "raster": 1 }, "geometry": { "type": "Point", "coordinates": [ 7.630784677023904, 51.906987968615717 ] } },
{ "type": "Feature", "properties": { "ID": 680, "Name": "SP BESSELWEG", "Groesse": 500.0, "Bereich": "B/C", "Ball": 0, "Skater": null, "Streetball": null, "Rechtswert": 3402358.0, "Hochwert": 5760678.0, "raster": 1 }, "geometry": { "type": "Point", "coordinates": [ 7.578063794591867, 51.971428434842245 ] } },
{ "type": "Feature", "properties": { "ID": 681, "Name": "SP AN DER ALTEN KIRCHE", "Groesse": 4749.0, "Bereich": "A", "Ball": 2, "Skater": null, "Streetball": "ja", "Rechtswert": 3405949.0, "Hochwert": 5753221.0, "raster": 1 }, "geometry": { "type": "Point", "coordinates": [ 7.632340355209492, 51.905046628857406 ] } },
{ "type": "Feature", "properties": { "ID": 682, "Name": "SP STETTINER STRASSE", "Groesse": 1152.0, "Bereich": "B/C", "Ball": 0, "Skater": null, "Streetball": null, "Rechtswert": 3407038.0, "Hochwert": 5760631.0, "raster": 1 }, "geometry": { "type": "Point", "coordinates": [ 7.646158373899015, 51.971807965254641 ] } },
{ "type": "Feature", "properties": { "ID": 683, "Name": "SP HOHE GEEST", "Groesse": 2013.0, "Bereich": "B/C", "Ball": 2, "Skater": null, "Streetball": null, "Rechtswert": 3406139.0, "Hochwert": 5754402.0, "raster": 1 }, "geometry": { "type": "Point", "coordinates": [ 7.634778841513636, 51.915689905559574 ] } },
{ "type": "Feature", "properties": { "ID": 684, "Name": "SP HANSES-KETTELER-STRASSE", "Groesse": 2598.0, "Bereich": "A+B/C", "Ball": 2, "Skater": null, "Streetball": null, "Rechtswert": 3407197.0, "Hochwert": 5753090.0, "raster": 1 }, "geometry": { "type": "Point", "coordinates": [ 7.650504097031543, 51.904078706255881 ] } },
{ "type": "Feature", "properties": { "ID": 685, "Name": "SP HOPPENGARTEN-NORD       (BALLSPIELPLATZ)", "Groesse": 685.0, "Bereich": "A+B/C", "Ball": 1, "Skater": null, "Streetball": null, "Rechtswert": 3407415.0, "Hochwert": 5761300.0, "raster": 1 }, "geometry": { "type": "Point", "coordinates": [ 7.651462541790447, 51.977881768144151 ] } },
{ "type": "Feature", "properties": { "ID": 686, "Name": "SP KÖNIGSBERGER STRASSE", "Groesse": 2894.0, "Bereich": "A+B/C", "Ball": 0, "Skater": null, "Streetball": null, "Rechtswert": 3406799.0, "Hochwert": 5763013.0, "raster": 1 }, "geometry": { "type": "Point", "coordinates": [ 7.64203501537466, 51.993169993164948 ] } },
{ "type": "Feature", "properties": { "ID": 687, "Name": "SP POTSTIEGE", "Groesse": 1021.0, "Bereich": "B/C", "Ball": 0, "Skater": null, "Streetball": null, "Rechtswert": 3402455.0, "Hochwert": 5759949.0, "raster": 1 }, "geometry": { "type": "Point", "coordinates": [ 7.579681761887605, 51.964895620697078 ] } },
{ "type": "Feature", "properties": { "ID": 688, "Name": "SP POTSTIEGE", "Groesse": 1021.0, "Bereich": "B/C", "Ball": 0, "Skater": null, "Streetball": null, "Rechtswert": 3402455.0, "Hochwert": 5759949.0, "raster": 1 }, "geometry": { "type": "Point", "coordinates": [ 7.579681761887605, 51.964895620697078 ] } },
{ "type": "Feature", "properties": { "ID": 689, "Name": "SP LANGEWORTH", "Groesse": 645.0, "Bereich": "B/C", "Ball": 0, "Skater": null, "Streetball": null, "Rechtswert": 3403241.0, "Hochwert": 5763583.0, "raster": 1 }, "geometry": { "type": "Point", "coordinates": [ 7.590090285621272, 51.997683278102024 ] } },
{ "type": "Feature", "properties": { "ID": 690, "Name": "SP PAPPELWEG", "Groesse": 769.0, "Bereich": "B/C", "Ball": 0, "Skater": null, "Streetball": null, "Rechtswert": 3407580.0, "Hochwert": 5753662.0, "raster": 1 }, "geometry": { "type": "Point", "coordinates": [ 7.655914203738161, 51.909281775328431 ] } },
{ "type": "Feature", "properties": { "ID": 691, "Name": "SP MARKWEG", "Groesse": 407.0, "Bereich": "B/C", "Ball": 0, "Skater": null, "Streetball": null, "Rechtswert": 3407527.0, "Hochwert": 5761571.0, "raster": 1 }, "geometry": { "type": "Point", "coordinates": [ 7.653019136554695, 51.980335321385539 ] } },
{ "type": "Feature", "properties": { "ID": 692, "Name": "SP TER-BORCH-STRASSE", "Groesse": 838.0, "Bereich": "B/C", "Ball": 0, "Skater": null, "Streetball": null, "Rechtswert": 3405132.0, "Hochwert": 5755532.0, "raster": 1 }, "geometry": { "type": "Point", "coordinates": [ 7.619836757575086, 51.925672358814261 ] } },
{ "type": "Feature", "properties": { "ID": 693, "Name": "SP AM PASTORENBUSCH", "Groesse": 3185.0, "Bereich": "A", "Ball": 2, "Skater": null, "Streetball": "ja", "Rechtswert": 3401082.0, "Hochwert": 5762924.0, "raster": 1 }, "geometry": { "type": "Point", "coordinates": [ 7.558854947870357, 51.991382361476838 ] } },
{ "type": "Feature", "properties": { "ID": 694, "Name": "SP AM PASTORENBUSCH", "Groesse": 3185.0, "Bereich": "A", "Ball": 2, "Skater": null, "Streetball": "ja", "Rechtswert": 3401082.0, "Hochwert": 5762924.0, "raster": 1 }, "geometry": { "type": "Point", "coordinates": [ 7.558854947870357, 51.991382361476838 ] } },
{ "type": "Feature", "properties": { "ID": 695, "Name": "SP AM PASTORENBUSCH", "Groesse": 3185.0, "Bereich": "A", "Ball": 2, "Skater": null, "Streetball": "ja", "Rechtswert": 3401082.0, "Hochwert": 5762924.0, "raster": 1 }, "geometry": { "type": "Point", "coordinates": [ 7.558854947870357, 51.991382361476838 ] } },
{ "type": "Feature", "properties": { "ID": 696, "Name": "SP BAININGSTRASSE", "Groesse": 2311.0, "Bereich": "B/C", "Ball": 0, "Skater": "ja", "Streetball": "ja", "Rechtswert": 3405481.0, "Hochwert": 5752265.0, "raster": 1 }, "geometry": { "type": "Point", "coordinates": [ 7.625804115978277, 51.896377864342341 ] } },
{ "type": "Feature", "properties": { "ID": 697, "Name": "SP AN DER KONRADKIRCHE", "Groesse": 1000.0, "Bereich": "B/C", "Ball": 0, "Skater": null, "Streetball": null, "Rechtswert": 3409221.0, "Hochwert": 5759626.9999999991, "raster": 1 }, "geometry": { "type": "Point", "coordinates": [ 7.678181296627069, 51.963147544188935 ] } },
{ "type": "Feature", "properties": { "ID": 698, "Name": "SP COERDEPLATZ             (BALLSPIELPLATZ)", "Groesse": 560.0, "Bereich": "A+B/C", "Ball": 1, "Skater": null, "Streetball": null, "Rechtswert": 3405852.0, "Hochwert": 5760281.0, "raster": 1 }, "geometry": { "type": "Point", "coordinates": [ 7.629000899406105, 51.968463791760456 ] } },
{ "type": "Feature", "properties": { "ID": 699, "Name": "SP EICHENDORFF-SCHULE", "Groesse": 1139.0, "Bereich": "B/C", "Ball": 0, "Skater": null, "Streetball": "ja", "Rechtswert": 3410350.0, "Hochwert": 5754197.0000000009, "raster": 1 }, "geometry": { "type": "Point", "coordinates": [ 7.69601666489346, 51.914541236222654 ] } },
{ "type": "Feature", "properties": { "ID": 700, "Name": "SP BIRKENHEIDE II", "Groesse": 2857.0, "Bereich": "A", "Ball": 0, "Skater": null, "Streetball": null, "Rechtswert": 3409344.0, "Hochwert": 5754993.0, "raster": 1 }, "geometry": { "type": "Point", "coordinates": [ 7.68119082962897, 51.921530667593096 ] } },
{ "type": "Feature", "properties": { "ID": 701, "Name": "SP MARTIN-NIEMÜLLER-PARK", "Groesse": 5100.0, "Bereich": "A+B/C", "Ball": 2, "Skater": null, "Streetball": null, "Rechtswert": 3405012.0, "Hochwert": 5760756.0, "raster": 1 }, "geometry": { "type": "Point", "coordinates": [ 7.616650660403121, 51.972588789798287 ] } },
{ "type": "Feature", "properties": { "ID": 702, "Name": "SP STODTBROCKWEG           (BALLSPIELPLATZ)", "Groesse": null, "Bereich": null, "Ball": null, "Skater": null, "Streetball": null, "Rechtswert": 3399367.9999999995, "Hochwert": 5759481.0, "raster": 1 }, "geometry": { "type": "Point", "coordinates": [ 7.534919163314834, 51.960141098391638 ] } },
{ "type": "Feature", "properties": { "ID": 703, "Name": "SP HORSTMARER LANDWEG", "Groesse": 1225.0, "Bereich": "B/C", "Ball": 2, "Skater": null, "Streetball": null, "Rechtswert": 3403719.9999999995, "Hochwert": 5760510.0, "raster": 1 }, "geometry": { "type": "Point", "coordinates": [ 7.597924104209859, 51.970156408194661 ] } },
{ "type": "Feature", "properties": { "ID": 704, "Name": "SP JAHNSTRASSE", "Groesse": 549.0, "Bereich": "B/C", "Ball": 0, "Skater": null, "Streetball": null, "Rechtswert": 3404812.0, "Hochwert": 5761218.0, "raster": 1 }, "geometry": { "type": "Point", "coordinates": [ 7.613613124219314, 51.97670557799681 ] } },
{ "type": "Feature", "properties": { "ID": 705, "Name": "SP GOLDBRINK", "Groesse": 785.0, "Bereich": "B/C", "Ball": 0, "Skater": null, "Streetball": null, "Rechtswert": 3412184.0000000005, "Hochwert": 5755128.0, "raster": 1 }, "geometry": { "type": "Point", "coordinates": [ 7.722426559372074, 51.923198540294059 ] } },
{ "type": "Feature", "properties": { "ID": 706, "Name": "SP HERRENSTRASSE", "Groesse": 432.0, "Bereich": "B/C", "Ball": 0, "Skater": null, "Streetball": null, "Rechtswert": 3412793.0, "Hochwert": 5754469.0, "raster": 1 }, "geometry": { "type": "Point", "coordinates": [ 7.731443519457134, 51.917372880810646 ] } },
{ "type": "Feature", "properties": { "ID": 707, "Name": "SP BRÜNINGHEIDE", "Groesse": 170.0, "Bereich": "C", "Ball": 0, "Skater": null, "Streetball": null, "Rechtswert": 3403537.0, "Hochwert": 5763911.0, "raster": 1 }, "geometry": { "type": "Point", "coordinates": [ 7.594306541314117, 52.000681711578267 ] } },
{ "type": "Feature", "properties": { "ID": 708, "Name": "SP GIGASSTRASSE", "Groesse": 899.0, "Bereich": "B/C", "Ball": 0, "Skater": null, "Streetball": null, "Rechtswert": 3405158.0, "Hochwert": 5755829.0000000009, "raster": 1 }, "geometry": { "type": "Point", "coordinates": [ 7.620132841606548, 51.928345299995662 ] } },
{ "type": "Feature", "properties": { "ID": 709, "Name": "SP ZEPPELINSTRASSE", "Groesse": 508.0, "Bereich": "B/C", "Ball": 0, "Skater": null, "Streetball": null, "Rechtswert": 3406058.0, "Hochwert": 5760355.0, "raster": 1 }, "geometry": { "type": "Point", "coordinates": [ 7.631977237567521, 51.969163496935579 ] } },
{ "type": "Feature", "properties": { "ID": 710, "Name": "SP JOHANNE-WALHORN-WEG", "Groesse": 580.0, "Bereich": "B/C", "Ball": 0, "Skater": null, "Streetball": null, "Rechtswert": 3406532.0, "Hochwert": 5759705.0, "raster": 1 }, "geometry": { "type": "Point", "coordinates": [ 7.639049124632631, 51.963403148622554 ] } },
{ "type": "Feature", "properties": { "ID": 711, "Name": "SP GLUCKWEG", "Groesse": 2230.0, "Bereich": "A+B/C", "Ball": 2, "Skater": null, "Streetball": null, "Rechtswert": 3406862.0, "Hochwert": 5761797.0, "raster": 1 }, "geometry": { "type": "Point", "coordinates": [ 7.643281854348358, 51.982254926601485 ] } },
{ "type": "Feature", "properties": { "ID": 712, "Name": "SP KREUZSCHANZE", "Groesse": 1382.0, "Bereich": "B/C", "Ball": 0, "Skater": null, "Streetball": null, "Rechtswert": 3405368.0000000005, "Hochwert": 5760244.0, "raster": 1 }, "geometry": { "type": "Point", "coordinates": [ 7.621970636343777, 51.968049232661883 ] } },
{ "type": "Feature", "properties": { "ID": 713, "Name": "SP KARDINALSTRASSE", "Groesse": 2345.0, "Bereich": "A+B/C", "Ball": 0, "Skater": null, "Streetball": null, "Rechtswert": 3406814.0, "Hochwert": 5753310.0, "raster": 1 }, "geometry": { "type": "Point", "coordinates": [ 7.644881314145342, 51.905991534528866 ] } },
{ "type": "Feature", "properties": { "ID": 714, "Name": "SP TOPPHEIDEWEG", "Groesse": 5700.0, "Bereich": "A+B/C", "Ball": 0, "Skater": null, "Streetball": null, "Rechtswert": 3401962.0, "Hochwert": 5761154.0, "raster": 1 }, "geometry": { "type": "Point", "coordinates": [ 7.572167347799279, 51.975635473277428 ] } },
{ "type": "Feature", "properties": { "ID": 715, "Name": "SP DREI EICHEN, NORD", "Groesse": 742.0, "Bereich": "B/C", "Ball": 0, "Skater": null, "Streetball": null, "Rechtswert": 3411683.0, "Hochwert": 5763388.0, "raster": 1 }, "geometry": { "type": "Point", "coordinates": [ 7.713024269037175, 51.997336995027538 ] } },
{ "type": "Feature", "properties": { "ID": 716, "Name": "SP VOSSBUSCH", "Groesse": 1300.0, "Bereich": "B/C", "Ball": 2, "Skater": null, "Streetball": null, "Rechtswert": 3409026.0, "Hochwert": 5758563.0, "raster": 1 }, "geometry": { "type": "Point", "coordinates": [ 7.675626509358651, 51.953555595347247 ] } },
{ "type": "Feature", "properties": { "ID": 717, "Name": "SP THEODOR-HEUSS-STRASSE", "Groesse": 568.0, "Bereich": "B/C", "Ball": 0, "Skater": null, "Streetball": null, "Rechtswert": 3410191.0, "Hochwert": 5754309.0, "raster": 1 }, "geometry": { "type": "Point", "coordinates": [ 7.693677319355597, 51.915521976857598 ] } },
{ "type": "Feature", "properties": { "ID": 718, "Name": "SP BODELSCHWINGHSCHULE", "Groesse": 422.0, "Bereich": "B/C", "Ball": 0, "Skater": null, "Streetball": null, "Rechtswert": 3406913.0, "Hochwert": 5759289.0, "raster": 1 }, "geometry": { "type": "Point", "coordinates": [ 7.644703349523727, 51.959729286015147 ] } },
{ "type": "Feature", "properties": { "ID": 719, "Name": "SP GASSELSTIEGE - NORD", "Groesse": 681.0, "Bereich": "B/C", "Ball": 0, "Skater": null, "Streetball": null, "Rechtswert": 3404547.0, "Hochwert": 5760820.0, "raster": 1 }, "geometry": { "type": "Point", "coordinates": [ 7.609868225206578, 51.973084214225906 ] } },
{ "type": "Feature", "properties": { "ID": 720, "Name": "SP TÖMMERSWEG", "Groesse": 1688.0, "Bereich": "A?", "Ball": 0, "Skater": null, "Streetball": null, "Rechtswert": 3405270.0, "Hochwert": 5767826.0, "raster": 1 }, "geometry": { "type": "Point", "coordinates": [ 7.618451230803271, 52.036155135937193 ] } },
{ "type": "Feature", "properties": { "ID": 721, "Name": "SP LECHTERSTRASSE", "Groesse": 491.0, "Bereich": "B/C", "Ball": 0, "Skater": null, "Streetball": null, "Rechtswert": 3404963.0, "Hochwert": 5755623.0, "raster": 1 }, "geometry": { "type": "Point", "coordinates": [ 7.617355660026115, 51.926461182326214 ] } },
{ "type": "Feature", "properties": { "ID": 722, "Name": "SP AM LÜTKEBACH", "Groesse": 959.0, "Bereich": "B/C", "Ball": 0, "Skater": null, "Streetball": null, "Rechtswert": 3407668.0, "Hochwert": 5757151.0, "raster": 1 }, "geometry": { "type": "Point", "coordinates": [ 7.656257651135344, 51.94064514826146 ] } },
{ "type": "Feature", "properties": { "ID": 723, "Name": "SP MARGARETENSCHULE, BRENTANOWEG 18", "Groesse": 540.0, "Bereich": "B/C", "Ball": 0, "Skater": null, "Streetball": "ja", "Rechtswert": 3408910.0, "Hochwert": 5758437.0, "raster": 1 }, "geometry": { "type": "Point", "coordinates": [ 7.673973020250694, 51.952404504157776 ] } },
{ "type": "Feature", "properties": { "ID": 724, "Name": "SP ZUM GUTEN HIRTEN", "Groesse": 1043.0, "Bereich": "B/C", "Ball": 0, "Skater": null, "Streetball": null, "Rechtswert": 3407881.0, "Hochwert": 5759640.0, "raster": 1 }, "geometry": { "type": "Point", "coordinates": [ 7.65868766441897, 51.963044097788377 ] } },
{ "type": "Feature", "properties": { "ID": 725, "Name": "SP LAERER LANDWEG", "Groesse": 1271.0, "Bereich": "B/C", "Ball": 2, "Skater": null, "Streetball": "ja", "Rechtswert": 3408548.0, "Hochwert": 5758726.0, "raster": 1 }, "geometry": { "type": "Point", "coordinates": [ 7.668632180760016, 51.954941813771121 ] } },
{ "type": "Feature", "properties": { "ID": 726, "Name": "SP KRANICHWEG", "Groesse": 660.0, "Bereich": "B/C", "Ball": 0, "Skater": null, "Streetball": null, "Rechtswert": 3409357.0, "Hochwert": 5755987.0, "raster": 1 }, "geometry": { "type": "Point", "coordinates": [ 7.681118226815331, 51.930463994983917 ] } },
{ "type": "Feature", "properties": { "ID": 727, "Name": "SP MERGELBERG-NORD", "Groesse": 4500.0, "Bereich": "A", "Ball": 0, "Skater": "ja", "Streetball": "ja", "Rechtswert": 3401148.0, "Hochwert": 5760478.0, "raster": 1 }, "geometry": { "type": "Point", "coordinates": [ 7.56051948598189, 51.969417802536007 ] } },
{ "type": "Feature", "properties": { "ID": 728, "Name": "SP AM KÄMPKEN", "Groesse": 2757.0, "Bereich": "A+B/C", "Ball": 2, "Skater": null, "Streetball": null, "Rechtswert": 3398672.0, "Hochwert": 5755084.0, "raster": 1 }, "geometry": { "type": "Point", "coordinates": [ 7.526091398724267, 51.920509904903064 ] } },
{ "type": "Feature", "properties": { "ID": 729, "Name": "SP GUSTAV-FREYTAG-/ HEINR.-VON-KLEIST-STR.", "Groesse": 1821.0, "Bereich": "B/C", "Ball": 2, "Skater": null, "Streetball": null, "Rechtswert": 3400564.0, "Hochwert": 5763074.0, "raster": 1 }, "geometry": { "type": "Point", "coordinates": [ 7.551272846289531, 51.992637620360583 ] } },
{ "type": "Feature", "properties": { "ID": 730, "Name": "SP SPRICKMANNSTRASSE 10", "Groesse": 350.0, "Bereich": "C", "Ball": 0, "Skater": null, "Streetball": null, "Rechtswert": 3403693.0, "Hochwert": 5763632.0000000009, "raster": 1 }, "geometry": { "type": "Point", "coordinates": [ 7.596655698268938, 51.99820204168315 ] } },
{ "type": "Feature", "properties": { "ID": 731, "Name": "SP NORDMARK", "Groesse": 3250.0, "Bereich": "A", "Ball": 0, "Skater": null, "Streetball": null, "Rechtswert": 3404017.0, "Hochwert": 5764136.0, "raster": 1 }, "geometry": { "type": "Point", "coordinates": [ 7.601230791809364, 52.002786388044413 ] } },
{ "type": "Feature", "properties": { "ID": 732, "Name": "SP GRONOWSKISTRASSE", "Groesse": 2456.0, "Bereich": "B/C", "Ball": 0, "Skater": null, "Streetball": null, "Rechtswert": 3401514.0, "Hochwert": 5760378.0, "raster": 1 }, "geometry": { "type": "Point", "coordinates": [ 7.565872099533789, 51.968584256583682 ] } },
{ "type": "Feature", "properties": { "ID": 733, "Name": "SP GEISTSCHULE", "Groesse": 2000.0, "Bereich": "B/C", "Ball": 0, "Skater": null, "Streetball": "ja", "Rechtswert": 3405268.0, "Hochwert": 5756987.0, "raster": 1 }, "geometry": { "type": "Point", "coordinates": [ 7.621412975798223, 51.938768522056755 ] } },
{ "type": "Feature", "properties": { "ID": 734, "Name": "SP HELENE-WEIGEL-WEG, alt: EINKAUFZENTRUM MEESENSTIEGE", "Groesse": 4460.0, "Bereich": "A+B/C", "Ball": 2, "Skater": null, "Streetball": "ja", "Rechtswert": 3405280.0, "Hochwert": 5752918.0, "raster": 1 }, "geometry": { "type": "Point", "coordinates": [ 7.622705717602912, 51.902210942102862 ] } },
{ "type": "Feature", "properties": { "ID": 735, "Name": "SP KÖSLINER STRASSE", "Groesse": 1580.0, "Bereich": "B/C", "Ball": 0, "Skater": null, "Streetball": null, "Rechtswert": 3407006.0, "Hochwert": 5761238.0, "raster": 1 }, "geometry": { "type": "Point", "coordinates": [ 7.64552855002628, 51.977256462707956 ] } },
{ "type": "Feature", "properties": { "ID": 736, "Name": "SP DRENSTEINFURTWEG", "Groesse": 1460.0, "Bereich": "B/C", "Ball": 0, "Skater": null, "Streetball": null, "Rechtswert": 3404005.0, "Hochwert": 5755806.0, "raster": 1 }, "geometry": { "type": "Point", "coordinates": [ 7.603382340153793, 51.927941169228205 ] } },
{ "type": "Feature", "properties": { "ID": 737, "Name": "SP KÖRNERSTRASSE", "Groesse": 615.0, "Bereich": "B/C", "Ball": 0, "Skater": null, "Streetball": null, "Rechtswert": 3404976.0, "Hochwert": 5758568.0, "raster": 1 }, "geometry": { "type": "Point", "coordinates": [ 7.616731695149785, 51.9529238340983 ] } },
{ "type": "Feature", "properties": { "ID": 738, "Name": "SP EMIL-NOLDE-WEG", "Groesse": 625.0, "Bereich": "B/C", "Ball": 0, "Skater": null, "Streetball": null, "Rechtswert": 3409043.0, "Hochwert": 5752655.9999999991, "raster": 1 }, "geometry": { "type": "Point", "coordinates": [ 7.677433276690643, 51.900483359265905 ] } },
{ "type": "Feature", "properties": { "ID": 739, "Name": "SP MEINERTZSTRASSE", "Groesse": 800.0, "Bereich": "B/C", "Ball": 0, "Skater": null, "Streetball": null, "Rechtswert": 3403677.0, "Hochwert": 5764090.0, "raster": 1 }, "geometry": { "type": "Point", "coordinates": [ 7.596294211642622, 52.002314255751642 ] } },
{ "type": "Feature", "properties": { "ID": 740, "Name": "SP FRESNOSTRASSE           (BALLSPIELPLATZ)", "Groesse": 1055.0, "Bereich": "A", "Ball": 1, "Skater": null, "Streetball": "ja", "Rechtswert": 3404598.0, "Hochwert": 5762196.0, "raster": 1 }, "geometry": { "type": "Point", "coordinates": [ 7.61022796455116, 51.985456023400559 ] } },
{ "type": "Feature", "properties": { "ID": 741, "Name": "SP GELMERHEIDE", "Groesse": 582.0, "Bereich": "B/C", "Ball": 0, "Skater": null, "Streetball": null, "Rechtswert": 3408854.0, "Hochwert": 5766860.0, "raster": 1 }, "geometry": { "type": "Point", "coordinates": [ 7.670922076733622, 52.028075920073029 ] } },
{ "type": "Feature", "properties": { "ID": 742, "Name": "SP WERSEAUE", "Groesse": 1014.0, "Bereich": "B/C", "Ball": 0, "Skater": null, "Streetball": null, "Rechtswert": 3410759.0, "Hochwert": 5761900.0, "raster": 1 }, "geometry": { "type": "Point", "coordinates": [ 7.699961232856562, 51.983819551534893 ] } },
{ "type": "Feature", "properties": { "ID": 743, "Name": "SP AN DER VOGELRUTE", "Groesse": 797.0, "Bereich": "B/C", "Ball": 0, "Skater": null, "Streetball": null, "Rechtswert": 3412315.0, "Hochwert": 5753874.0, "raster": 1 }, "geometry": { "type": "Point", "coordinates": [ 7.724649293454533, 51.911951620836859 ] } },
{ "type": "Feature", "properties": { "ID": 744, "Name": "SP GESCHERWEG - WEST", "Groesse": 820.0, "Bereich": "B/C", "Ball": 0, "Skater": null, "Streetball": null, "Rechtswert": 3402048.0, "Hochwert": 5761005.0, "raster": 1 }, "geometry": { "type": "Point", "coordinates": [ 7.573460991567827, 51.974311913652159 ] } },
{ "type": "Feature", "properties": { "ID": 745, "Name": "SP GESCHERWEG - WEST", "Groesse": 820.0, "Bereich": "B/C", "Ball": 0, "Skater": null, "Streetball": null, "Rechtswert": 3402048.0, "Hochwert": 5761005.0, "raster": 1 }, "geometry": { "type": "Point", "coordinates": [ 7.573460991567827, 51.974311913652159 ] } },
{ "type": "Feature", "properties": { "ID": 746, "Name": "SP STEVENINKSTRASSE", "Groesse": 1836.0, "Bereich": "B/C", "Ball": 0, "Skater": null, "Streetball": null, "Rechtswert": 3405280.0, "Hochwert": 5757839.0, "raster": 1 }, "geometry": { "type": "Point", "coordinates": [ 7.621352957200672, 51.946425680222916 ] } },
{ "type": "Feature", "properties": { "ID": 747, "Name": "SP GOTTFRIED-VON-CAPPENBERG-SCHULE, Glatzer Weg 9", "Groesse": 480.0, "Bereich": "B/C", "Ball": 0, "Skater": null, "Streetball": null, "Rechtswert": 3404583.9999999995, "Hochwert": 5756441.0, "raster": 1 }, "geometry": { "type": "Point", "coordinates": [ 7.611621157888806, 51.933746020987478 ] } },
{ "type": "Feature", "properties": { "ID": 748, "Name": "SP HANSAPLATZ", "Groesse": 3300.0, "Bereich": "A+B/C", "Ball": 2, "Skater": null, "Streetball": null, "Rechtswert": 3406917.0, "Hochwert": 5758786.0, "raster": 1 }, "geometry": { "type": "Point", "coordinates": [ 7.644897669574414, 51.955210528794943 ] } },
{ "type": "Feature", "properties": { "ID": 749, "Name": "SP APPELBREISTIEGE", "Groesse": 725.0, "Bereich": "B/C", "Ball": 0, "Skater": null, "Streetball": null, "Rechtswert": 3402750.0, "Hochwert": 5760141.0, "raster": 1 }, "geometry": { "type": "Point", "coordinates": [ 7.58391821142673, 51.966672324361305 ] } },
{ "type": "Feature", "properties": { "ID": 750, "Name": "SP AM TINNENBUSCH", "Groesse": 635.0, "Bereich": "B/C", "Ball": 0, "Skater": null, "Streetball": null, "Rechtswert": 3398973.0, "Hochwert": 5754866.0, "raster": 1 }, "geometry": { "type": "Point", "coordinates": [ 7.530528916959621, 51.918605920623861 ] } },
{ "type": "Feature", "properties": { "ID": 751, "Name": "SP PICTORIUSSTRASSE (BEGEGNUNGSRAUM)", "Groesse": 1699.0, "Bereich": "B/C", "Ball": 0, "Skater": null, "Streetball": null, "Rechtswert": 3405213.0, "Hochwert": 5755523.0, "raster": 1 }, "geometry": { "type": "Point", "coordinates": [ 7.621016369131193, 51.925605280739539 ] } },
{ "type": "Feature", "properties": { "ID": 752, "Name": "SP JOSEFSCHULE, HERMANNSTRASSE 58", "Groesse": 950.0, "Bereich": "B/C", "Ball": 0, "Skater": null, "Streetball": "Balltrichter", "Rechtswert": 3405458.0, "Hochwert": 5758321.0, "raster": 1 }, "geometry": { "type": "Point", "coordinates": [ 7.623808507582654, 51.950786646572212 ] } },
{ "type": "Feature", "properties": { "ID": 753, "Name": "SP SCHÜTZENHOF", "Groesse": 1613.0, "Bereich": "B/C", "Ball": 2, "Skater": null, "Streetball": "ja", "Rechtswert": 3405482.0, "Hochwert": 5757721.0, "raster": 1 }, "geometry": { "type": "Point", "coordinates": [ 7.624322296917338, 51.945399793486231 ] } },
{ "type": "Feature", "properties": { "ID": 831, "Name": "SP MAXIMILIANSTRASSE-SÜD", "Groesse": 740.0, "Bereich": "B/C", "Ball": 0, "Skater": null, "Streetball": null, "Rechtswert": 3406122.0, "Hochwert": 5760471.0, "raster": 1 }, "geometry": { "type": "Point", "coordinates": [ 7.632876536463294, 51.970216546937387 ] } },
{ "type": "Feature", "properties": { "ID": 832, "Name": "SP DREI EICHEN             (BALLSPIELPLATZ)", "Groesse": 800.0, "Bereich": "B/C", "Ball": 1, "Skater": null, "Streetball": null, "Rechtswert": 3411660.0, "Hochwert": 5763108.0, "raster": 1 }, "geometry": { "type": "Point", "coordinates": [ 7.712761563428192, 51.994817503129561 ] } },
{ "type": "Feature", "properties": { "ID": 833, "Name": "SP HAUS ANGELMODDE", "Groesse": 915.0, "Bereich": "B/C", "Ball": 0, "Skater": null, "Streetball": null, "Rechtswert": 3410729.0, "Hochwert": 5754844.0, "raster": 1 }, "geometry": { "type": "Point", "coordinates": [ 7.701355745639537, 51.920415504535917 ] } },
{ "type": "Feature", "properties": { "ID": 834, "Name": "SP MEMMERTWEG-NORD", "Groesse": 1137.0, "Bereich": "A", "Ball": 0, "Skater": null, "Streetball": null, "Rechtswert": 3405170.0, "Hochwert": 5763507.0, "raster": 1 }, "geometry": { "type": "Point", "coordinates": [ 7.618189404774214, 51.997332943376819 ] } },
{ "type": "Feature", "properties": { "ID": 835, "Name": "SP MEMMERTWEG-NORD", "Groesse": 1137.0, "Bereich": "A", "Ball": 0, "Skater": null, "Streetball": null, "Rechtswert": 3405170.0, "Hochwert": 5763507.0, "raster": 1 }, "geometry": { "type": "Point", "coordinates": [ 7.618189404774214, 51.997332943376819 ] } },
{ "type": "Feature", "properties": { "ID": 836, "Name": "SP MÜHLENSTRASSE", "Groesse": 3040.0, "Bereich": "A+B/C", "Ball": 0, "Skater": null, "Streetball": null, "Rechtswert": 3405248.0, "Hochwert": 5759252.0, "raster": 1 }, "geometry": { "type": "Point", "coordinates": [ 7.620498499827103, 51.959115843289325 ] } },
{ "type": "Feature", "properties": { "ID": 837, "Name": "SP HEGERSKAMP", "Groesse": 2946.0, "Bereich": "A+B/C", "Ball": 2, "Skater": null, "Streetball": null, "Rechtswert": 3408789.0, "Hochwert": 5757953.0, "raster": 1 }, "geometry": { "type": "Point", "coordinates": [ 7.672341817256432, 51.948035921213155 ] } },
{ "type": "Feature", "properties": { "ID": 838, "Name": "SP AM PASTORENBUSCH", "Groesse": 3185.0, "Bereich": "A", "Ball": 2, "Skater": null, "Streetball": "ja", "Rechtswert": 3401082.0, "Hochwert": 5762924.0, "raster": 1 }, "geometry": { "type": "Point", "coordinates": [ 7.558854947870357, 51.991382361476838 ] } },
{ "type": "Feature", "properties": { "ID": 839, "Name": "SP AM PASTORENBUSCH", "Groesse": 3185.0, "Bereich": "A", "Ball": 2, "Skater": null, "Streetball": "ja", "Rechtswert": 3401082.0, "Hochwert": 5762924.0, "raster": 1 }, "geometry": { "type": "Point", "coordinates": [ 7.558854947870357, 51.991382361476838 ] } },
{ "type": "Feature", "properties": { "ID": 840, "Name": "SP AM PASTORENBUSCH", "Groesse": 3185.0, "Bereich": "A", "Ball": 2, "Skater": null, "Streetball": "ja", "Rechtswert": 3401082.0, "Hochwert": 5762924.0, "raster": 1 }, "geometry": { "type": "Point", "coordinates": [ 7.558854947870357, 51.991382361476838 ] } },
{ "type": "Feature", "properties": { "ID": 841, "Name": "SP DREIFALTIGKEITSSCHULE", "Groesse": 959.0, "Bereich": "B/C", "Ball": 0, "Skater": null, "Streetball": "Balltrichter", "Rechtswert": 3404909.0, "Hochwert": 5760986.0, "raster": 1 }, "geometry": { "type": "Point", "coordinates": [ 7.615088594377784, 51.974637696833248 ] } },
{ "type": "Feature", "properties": { "ID": 842, "Name": "SP ALSENSTRASSE", "Groesse": 1505.0, "Bereich": "B/C", "Ball": 0, "Skater": null, "Streetball": null, "Rechtswert": 3406791.0, "Hochwert": 5760392.0, "raster": 1 }, "geometry": { "type": "Point", "coordinates": [ 7.642629946097854, 51.969619236680153 ] } },
{ "type": "Feature", "properties": { "ID": 843, "Name": "SP EICHENWEG SÜD", "Groesse": 488.0, "Bereich": "B/C", "Ball": 0, "Skater": null, "Streetball": null, "Rechtswert": 3399712.0, "Hochwert": 5758262.0, "raster": 1 }, "geometry": { "type": "Point", "coordinates": [ 7.540277430763024, 51.949251036901074 ] } },
{ "type": "Feature", "properties": { "ID": 844, "Name": "SP AN DER MEERWIESE-MITTE", "Groesse": null, "Bereich": null, "Ball": null, "Skater": null, "Streetball": null, "Rechtswert": 3407366.0, "Hochwert": 5762508.0, "raster": 1 }, "geometry": { "type": "Point", "coordinates": [ 7.650423733587448, 51.988727397337129 ] } },
{ "type": "Feature", "properties": { "ID": 845, "Name": "SP AN DER MEERWIESE-MITTE", "Groesse": null, "Bereich": null, "Ball": null, "Skater": null, "Streetball": null, "Rechtswert": 3407366.0, "Hochwert": 5762508.0, "raster": 1 }, "geometry": { "type": "Point", "coordinates": [ 7.650423733587448, 51.988727397337129 ] } },
{ "type": "Feature", "properties": { "ID": 846, "Name": "SP AM EDELBACH", "Groesse": 2111.0, "Bereich": "A+B/C", "Ball": 0, "Skater": null, "Streetball": null, "Rechtswert": 3407661.0, "Hochwert": 5763093.0000000009, "raster": 1 }, "geometry": { "type": "Point", "coordinates": [ 7.654559522770293, 51.994032657886102 ] } },
{ "type": "Feature", "properties": { "ID": 847, "Name": "SP AM EDELBACH", "Groesse": 2111.0, "Bereich": "A+B/C", "Ball": 0, "Skater": null, "Streetball": null, "Rechtswert": 3407661.0, "Hochwert": 5763093.0000000009, "raster": 1 }, "geometry": { "type": "Point", "coordinates": [ 7.654559522770293, 51.994032657886102 ] } },
{ "type": "Feature", "properties": { "ID": 848, "Name": "SP ADMIRAL-SPEE-STRASSE", "Groesse": 950.0, "Bereich": "B/C", "Ball": 0, "Skater": null, "Streetball": null, "Rechtswert": 3408128.0, "Hochwert": 5760143.9999999991, "raster": 1 }, "geometry": { "type": "Point", "coordinates": [ 7.662145542157184, 51.967613372281427 ] } },
{ "type": "Feature", "properties": { "ID": 849, "Name": "SP ENGELENSCHANZE", "Groesse": 140.0, "Bereich": "C", "Ball": 0, "Skater": null, "Streetball": null, "Rechtswert": 3405953.0, "Hochwert": 5759050.0, "raster": 1 }, "geometry": { "type": "Point", "coordinates": [ 7.630806836501978, 51.957420485329813 ] } },
{ "type": "Feature", "properties": { "ID": 850, "Name": "SP RINKERODEWEG", "Groesse": 417.0, "Bereich": "B/C", "Ball": 0, "Skater": null, "Streetball": null, "Rechtswert": 3404075.0, "Hochwert": 5756354.0, "raster": 1 }, "geometry": { "type": "Point", "coordinates": [ 7.604247049161779, 51.932876915005153 ] } },
{ "type": "Feature", "properties": { "ID": 851, "Name": "SP SCHÖPPINGENWEG", "Groesse": 417.0, "Bereich": "B/C", "Ball": 0, "Skater": null, "Streetball": null, "Rechtswert": 3402322.0, "Hochwert": 5760901.0, "raster": 1 }, "geometry": { "type": "Point", "coordinates": [ 7.577476707593283, 51.973425695099536 ] } },
{ "type": "Feature", "properties": { "ID": 852, "Name": "SP AGATHASTRASSE", "Groesse": 991.0, "Bereich": "B/C", "Ball": 0, "Skater": null, "Streetball": null, "Rechtswert": 3409811.0, "Hochwert": 5755884.0, "raster": 1 }, "geometry": { "type": "Point", "coordinates": [ 7.6877438399983, 51.929612223624098 ] } },
{ "type": "Feature", "properties": { "ID": 853, "Name": "SP VÖGEDINGPLATZ", "Groesse": 3681.0, "Bereich": "A+B/C", "Ball": 0, "Skater": null, "Streetball": null, "Rechtswert": 3400573.0, "Hochwert": 5763464.0, "raster": 1 }, "geometry": { "type": "Point", "coordinates": [ 7.551290834806328, 51.99614319747689 ] } },
{ "type": "Feature", "properties": { "ID": 854, "Name": "SP AM HAUS NIENBERGE", "Groesse": 750.0, "Bereich": "B/C", "Ball": 0, "Skater": null, "Streetball": null, "Rechtswert": 3400945.0, "Hochwert": 5763756.0, "raster": 1 }, "geometry": { "type": "Point", "coordinates": [ 7.556620968168508, 51.998833111208299 ] } },
{ "type": "Feature", "properties": { "ID": 855, "Name": "SP MAX-REGER-STRASSE", "Groesse": 914.0, "Bereich": "B/C", "Ball": 0, "Skater": null, "Streetball": null, "Rechtswert": 3406544.0, "Hochwert": 5753551.0, "raster": 1 }, "geometry": { "type": "Point", "coordinates": [ 7.64089390913438, 51.908111729017392 ] } },
{ "type": "Feature", "properties": { "ID": 856, "Name": "SP TRINITATISKIRCHE, STRASSBURGER WEG", "Groesse": 1160.0, "Bereich": "B/C", "Ball": 0, "Skater": null, "Streetball": null, "Rechtswert": 3405326.0, "Hochwert": 5757524.0, "raster": 1 }, "geometry": { "type": "Point", "coordinates": [ 7.622108416857623, 51.943603267843436 ] } },
{ "type": "Feature", "properties": { "ID": 857, "Name": "SP DAUVEMÜHLE", "Groesse": 1138.0, "Bereich": "B/C", "Ball": 0, "Skater": null, "Streetball": null, "Rechtswert": 3403922.0, "Hochwert": 5762649.0, "raster": 1 }, "geometry": { "type": "Point", "coordinates": [ 7.600264198867908, 51.989409699607222 ] } },
{ "type": "Feature", "properties": { "ID": 858, "Name": "SP DYCKBURGSTRASSE", "Groesse": 582.0, "Bereich": "B/C", "Ball": 0, "Skater": null, "Streetball": null, "Rechtswert": 3410158.0, "Hochwert": 5763230.0, "raster": 1 }, "geometry": { "type": "Point", "coordinates": [ 7.690867523621228, 51.99567288162865 ] } },
{ "type": "Feature", "properties": { "ID": 859, "Name": "SP KÖSTERS KÄMPKEN", "Groesse": 785.0, "Bereich": "B/C", "Ball": 0, "Skater": null, "Streetball": null, "Rechtswert": 3399728.0, "Hochwert": 5758565.0, "raster": 1 }, "geometry": { "type": "Point", "coordinates": [ 7.540421755733963, 51.951976239274011 ] } },
{ "type": "Feature", "properties": { "ID": 860, "Name": "SP DAHLIENWEG", "Groesse": 656.0, "Bereich": "B/C", "Ball": 0, "Skater": null, "Streetball": null, "Rechtswert": 3408393.0, "Hochwert": 5752851.0, "raster": 1 }, "geometry": { "type": "Point", "coordinates": [ 7.667940454838124, 51.902129044899951 ] } },
{ "type": "Feature", "properties": { "ID": 861, "Name": "SP TANNENBERGSTRASSE", "Groesse": 963.0, "Bereich": "B/C", "Ball": 2, "Skater": null, "Streetball": null, "Rechtswert": 3405831.9999999995, "Hochwert": 5760870.0, "raster": 1 }, "geometry": { "type": "Point", "coordinates": [ 7.628548562495653, 51.973752490568792 ] } },
{ "type": "Feature", "properties": { "ID": 862, "Name": "SP GASSELSTIEGE - SÜD", "Groesse": 590.0, "Bereich": "B/C", "Ball": 0, "Skater": null, "Streetball": null, "Rechtswert": 3404635.0, "Hochwert": 5760608.0, "raster": 1 }, "geometry": { "type": "Point", "coordinates": [ 7.611207270093002, 51.971194532209481 ] } },
{ "type": "Feature", "properties": { "ID": 863, "Name": "SP FERNHOLZSTRASSE", "Groesse": 2100.0, "Bereich": "A+B/C", "Ball": 2, "Skater": null, "Streetball": "ja", "Rechtswert": 3403282.0, "Hochwert": 5763127.0, "raster": 1 }, "geometry": { "type": "Point", "coordinates": [ 7.590815595255795, 51.993593400065024 ] } },
{ "type": "Feature", "properties": { "ID": 864, "Name": "SP AM NATURDENKMAL", "Groesse": 1895.0, "Bereich": "A", "Ball": 0, "Skater": null, "Streetball": null, "Rechtswert": 3405043.0, "Hochwert": 5755788.0, "raster": 1 }, "geometry": { "type": "Point", "coordinates": [ 7.618472803343704, 51.927957330007196 ] } },
{ "type": "Feature", "properties": { "ID": 865, "Name": "SP AUF DEM DRAUN", "Groesse": 2353.0, "Bereich": "B/C", "Ball": 0, "Skater": null, "Streetball": null, "Rechtswert": 3403350.0, "Hochwert": 5758583.0, "raster": 1 }, "geometry": { "type": "Point", "coordinates": [ 7.59308348927349, 51.95277864846372 ] } },
{ "type": "Feature", "properties": { "ID": 866, "Name": "SP MARIENSCHULE", "Groesse": 500.0, "Bereich": "B/C", "Ball": 0, "Skater": null, "Streetball": null, "Rechtswert": 3399110.0, "Hochwert": 5758880.0, "raster": 1 }, "geometry": { "type": "Point", "coordinates": [ 7.531343349741524, 51.954694693153243 ] } },
{ "type": "Feature", "properties": { "ID": 867, "Name": "SP GARTENSTIEGE", "Groesse": 1971.0, "Bereich": "B/C", "Ball": 0, "Skater": null, "Streetball": null, "Rechtswert": 3401267.0, "Hochwert": 5763622.0, "raster": 1 }, "geometry": { "type": "Point", "coordinates": [ 7.561346507246469, 51.997686482339077 ] } },
{ "type": "Feature", "properties": { "ID": 868, "Name": "SP KILLINGSTRASSE", "Groesse": 786.0, "Bereich": "B/C", "Ball": 0, "Skater": null, "Streetball": null, "Rechtswert": 3403518.0, "Hochwert": 5763801.0, "raster": 1 }, "geometry": { "type": "Point", "coordinates": [ 7.594060900518929, 51.999690098388974 ] } },
{ "type": "Feature", "properties": { "ID": 869, "Name": "SP IM DAHL", "Groesse": 2664.0, "Bereich": "A", "Ball": 2, "Skater": null, "Streetball": "ja", "Rechtswert": 3406515.0, "Hochwert": 5754144.0, "raster": 1 }, "geometry": { "type": "Point", "coordinates": [ 7.640311865133259, 51.913434970772578 ] } },
{ "type": "Feature", "properties": { "ID": 870, "Name": "SP PATRONATSSTRASSE", "Groesse": 550.0, "Bereich": "B/C", "Ball": 0, "Skater": null, "Streetball": null, "Rechtswert": 3406375.0, "Hochwert": 5753199.0, "raster": 1 }, "geometry": { "type": "Point", "coordinates": [ 7.638534395109271, 51.904920654427045 ] } },
{ "type": "Feature", "properties": { "ID": 871, "Name": "SP FREIBURGER WEG", "Groesse": 668.0, "Bereich": "B/C", "Ball": 0, "Skater": null, "Streetball": null, "Rechtswert": 3405088.0, "Hochwert": 5757253.0, "raster": 1 }, "geometry": { "type": "Point", "coordinates": [ 7.618723022395095, 51.941127850220944 ] } },
{ "type": "Feature", "properties": { "ID": 872, "Name": "SP PÖTTERHOEK", "Groesse": 1364.0, "Bereich": "B/C", "Ball": 0, "Skater": null, "Streetball": null, "Rechtswert": 3407695.0, "Hochwert": 5760668.0, "raster": 1 }, "geometry": { "type": "Point", "coordinates": [ 7.655706242452337, 51.972249820256884 ] } },
{ "type": "Feature", "properties": { "ID": 873, "Name": "SP AM HOF SCHULTMANN", "Groesse": 700.0, "Bereich": "B/C", "Ball": 0, "Skater": null, "Streetball": null, "Rechtswert": 3402271.0, "Hochwert": 5755855.0, "raster": 1 }, "geometry": { "type": "Point", "coordinates": [ 7.57816815452032, 51.928079942877879 ] } },
{ "type": "Feature", "properties": { "ID": 874, "Name": "SP SÜDPARK", "Groesse": 15765.0, "Bereich": "A+B/C", "Ball": 2, "Skater": null, "Streetball": null, "Rechtswert": 3405874.0, "Hochwert": 5758097.0, "raster": 1 }, "geometry": { "type": "Point", "coordinates": [ 7.629918720249018, 51.94884452574226 ] } },
{ "type": "Feature", "properties": { "ID": 875, "Name": "SP GUT INSEL", "Groesse": 6086.0, "Bereich": "A+B/C", "Ball": 2, "Skater": null, "Streetball": "ja", "Rechtswert": 3404775.9999999995, "Hochwert": 5756870.0, "raster": 1 }, "geometry": { "type": "Point", "coordinates": [ 7.61429326161304, 51.937633384402034 ] } },
{ "type": "Feature", "properties": { "ID": 876, "Name": "SP GUT INSEL", "Groesse": 6086.0, "Bereich": "A+B/C", "Ball": 2, "Skater": null, "Streetball": "ja", "Rechtswert": 3404775.9999999995, "Hochwert": 5756870.0, "raster": 1 }, "geometry": { "type": "Point", "coordinates": [ 7.61429326161304, 51.937633384402034 ] } },
{ "type": "Feature", "properties": { "ID": 877, "Name": "SP BÖTTCHERSTRASSE", "Groesse": 1500.0, "Bereich": "B/C", "Ball": 0, "Skater": null, "Streetball": null, "Rechtswert": 3405119.0, "Hochwert": 5753245.0, "raster": 1 }, "geometry": { "type": "Point", "coordinates": [ 7.620277262231154, 51.905121644290688 ] } },
{ "type": "Feature", "properties": { "ID": 878, "Name": "SP WILHELMSTRASSE", "Groesse": 4269.0, "Bereich": "A+B/C", "Ball": 2, "Skater": null, "Streetball": null, "Rechtswert": 3404578.0, "Hochwert": 5760137.0, "raster": 1 }, "geometry": { "type": "Point", "coordinates": [ 7.610508855167773, 51.966952917750767 ] } },
{ "type": "Feature", "properties": { "ID": 879, "Name": "SP JOSEFINE-MAUSER-STRASSE", "Groesse": 1696.0, "Bereich": "B/C", "Ball": 0, "Skater": null, "Streetball": null, "Rechtswert": 3407379.0, "Hochwert": 5762735.0, "raster": 1 }, "geometry": { "type": "Point", "coordinates": [ 7.650551672709986, 51.990769139039635 ] } },
{ "type": "Feature", "properties": { "ID": 880, "Name": "SP AM LODDENBACH           (BALLSPIELPLATZ)", "Groesse": 2060.0, "Bereich": "A", "Ball": 1, "Skater": null, "Streetball": "ja", "Rechtswert": 3409285.0, "Hochwert": 5756550.0, "raster": 1 }, "geometry": { "type": "Point", "coordinates": [ 7.679923450156547, 51.935510888933429 ] } },
{ "type": "Feature", "properties": { "ID": 881, "Name": "SP WIENER STRASSE", "Groesse": 761.0, "Bereich": "B/C", "Ball": 2, "Skater": null, "Streetball": null, "Rechtswert": 3407475.0, "Hochwert": 5760382.0, "raster": 1 }, "geometry": { "type": "Point", "coordinates": [ 7.65258273531811, 51.969643573303529 ] } },
{ "type": "Feature", "properties": { "ID": 882, "Name": "SP MALTESERSTRASSE", "Groesse": 3100.0, "Bereich": "A+B/C", "Ball": 2, "Skater": null, "Streetball": null, "Rechtswert": 3406139.0, "Hochwert": 5752341.0000000009, "raster": 1 }, "geometry": { "type": "Point", "coordinates": [ 7.635339685915931, 51.897171848703636 ] } },
{ "type": "Feature", "properties": { "ID": 883, "Name": "SP ELBESTRASSE", "Groesse": 1425.0, "Bereich": "B/C", "Ball": 0, "Skater": null, "Streetball": null, "Rechtswert": 3407764.0, "Hochwert": 5760374.0, "raster": 1 }, "geometry": { "type": "Point", "coordinates": [ 7.656788955279064, 51.969619686094532 ] } },
{ "type": "Feature", "properties": { "ID": 884, "Name": "SP HAUS WIEK", "Groesse": 2800.0, "Bereich": "A", "Ball": 0, "Skater": null, "Streetball": "ja", "Rechtswert": 3398464.0, "Hochwert": 5754588.0, "raster": 1 }, "geometry": { "type": "Point", "coordinates": [ 7.523215211229675, 51.916015715195826 ] } },
{ "type": "Feature", "properties": { "ID": 885, "Name": "SP STERNBUSCH", "Groesse": 2700.0, "Bereich": "A", "Ball": 0, "Skater": null, "Streetball": null, "Rechtswert": 3405054.0, "Hochwert": 5755946.0, "raster": 1 }, "geometry": { "type": "Point", "coordinates": [ 7.618589121141619, 51.929378817366896 ] } },
{ "type": "Feature", "properties": { "ID": 886, "Name": "SP VON-EINEM-STRASSE", "Groesse": 1743.0, "Bereich": "A+B/C", "Ball": 2, "Skater": null, "Streetball": null, "Rechtswert": 3404522.0, "Hochwert": 5761892.0, "raster": 1 }, "geometry": { "type": "Point", "coordinates": [ 7.609206557655716, 51.982711607281146 ] } },
{ "type": "Feature", "properties": { "ID": 887, "Name": "SP BRESLAUER STRASSE", "Groesse": 2223.0, "Bereich": "A+B/C", "Ball": 2, "Skater": null, "Streetball": null, "Rechtswert": 3406953.0, "Hochwert": 5763066.0, "raster": 1 }, "geometry": { "type": "Point", "coordinates": [ 7.644262040484604, 51.993671993302513 ] } },
{ "type": "Feature", "properties": { "ID": 888, "Name": "SP KIEBITZWEG", "Groesse": 795.0, "Bereich": "B/C", "Ball": 0, "Skater": null, "Streetball": null, "Rechtswert": 3408011.0, "Hochwert": 5753565.0, "raster": 1 }, "geometry": { "type": "Point", "coordinates": [ 7.662201425063859, 51.908481507456067 ] } },
{ "type": "Feature", "properties": { "ID": 889, "Name": "SP SAMLANDUFER", "Groesse": 2659.0, "Bereich": "B/C", "Ball": 0, "Skater": null, "Streetball": null, "Rechtswert": 3407955.0, "Hochwert": 5762966.0, "raster": 1 }, "geometry": { "type": "Point", "coordinates": [ 7.658872719358719, 51.9929403359086 ] } },
{ "type": "Feature", "properties": { "ID": 890, "Name": "SP SAMLANDUFER", "Groesse": 2659.0, "Bereich": "B/C", "Ball": 0, "Skater": null, "Streetball": null, "Rechtswert": 3407955.0, "Hochwert": 5762966.0, "raster": 1 }, "geometry": { "type": "Point", "coordinates": [ 7.658872719358719, 51.9929403359086 ] } },
{ "type": "Feature", "properties": { "ID": 891, "Name": "SP ALTHAUSWEG", "Groesse": 2000.0, "Bereich": "A", "Ball": 0, "Skater": null, "Streetball": null, "Rechtswert": 3404208.0, "Hochwert": 5762902.0, "raster": 1 }, "geometry": { "type": "Point", "coordinates": [ 7.604355763558343, 51.991732195681934 ] } },
{ "type": "Feature", "properties": { "ID": 892, "Name": "SP AM DILL", "Groesse": 785.0, "Bereich": "B/C", "Ball": 0, "Skater": null, "Streetball": null, "Rechtswert": 3401403.0, "Hochwert": 5756189.0, "raster": 1 }, "geometry": { "type": "Point", "coordinates": [ 7.565457921655614, 51.930927886575176 ] } },
{ "type": "Feature", "properties": { "ID": 893, "Name": "SP WILKINGHEGE             (BALLSPIELPLATZ)", "Groesse": 1800.0, "Bereich": "A", "Ball": 0, "Skater": null, "Streetball": null, "Rechtswert": 3403635.0, "Hochwert": 5762518.0, "raster": 1 }, "geometry": { "type": "Point", "coordinates": [ 7.596124260183689, 51.98818302533823 ] } },
{ "type": "Feature", "properties": { "ID": 894, "Name": "SP HOHER HAINWEG", "Groesse": 1000.0, "Bereich": "B/C", "Ball": 2, "Skater": null, "Streetball": null, "Rechtswert": 3404506.0, "Hochwert": 5755907.0, "raster": 1 }, "geometry": { "type": "Point", "coordinates": [ 7.610635475166169, 51.928934741059741 ] } },
{ "type": "Feature", "properties": { "ID": 895, "Name": "SP RÜPINGSTRASSE", "Groesse": 815.0, "Bereich": "B/C", "Ball": 0, "Skater": null, "Streetball": null, "Rechtswert": 3404293.0, "Hochwert": 5756936.0, "raster": 1 }, "geometry": { "type": "Point", "coordinates": [ 7.607253869598874, 51.938143589634009 ] } },
{ "type": "Feature", "properties": { "ID": 896, "Name": "SP KAPPENBERGER DAMM", "Groesse": 525.0, "Bereich": "B/C", "Ball": 0, "Skater": null, "Streetball": null, "Rechtswert": 3404493.0, "Hochwert": 5756987.0, "raster": 1 }, "geometry": { "type": "Point", "coordinates": [ 7.610147021296507, 51.93863615126633 ] } },
{ "type": "Feature", "properties": { "ID": 897, "Name": "SP NERZWEG", "Groesse": 4277.0, "Bereich": "A+B/C", "Ball": 2, "Skater": "ja", "Streetball": "ja", "Rechtswert": 3406746.0, "Hochwert": 5763751.0, "raster": 1 }, "geometry": { "type": "Point", "coordinates": [ 7.641063054948552, 51.999791937204456 ] } },
{ "type": "Feature", "properties": { "ID": 898, "Name": "SP STADTPARK WIENBURG", "Groesse": 6000.0, "Bereich": "A", "Ball": 2, "Skater": "ja", "Streetball": null, "Rechtswert": 3405716.0, "Hochwert": 5761482.9999999991, "raster": 1 }, "geometry": { "type": "Point", "coordinates": [ 7.626692735409478, 51.979240550712966 ] } },
{ "type": "Feature", "properties": { "ID": 899, "Name": "SP TOMKOTTEN", "Groesse": 2150.0, "Bereich": "A", "Ball": 2, "Skater": null, "Streetball": "ja", "Rechtswert": 3411234.0, "Hochwert": 5761820.0, "raster": 1 }, "geometry": { "type": "Point", "coordinates": [ 7.706894029165782, 51.983176788354378 ] } },
{ "type": "Feature", "properties": { "ID": 900, "Name": "SP ALTER ZOO", "Groesse": 2380.0, "Bereich": "A+B/C", "Ball": 2, "Skater": null, "Streetball": null, "Rechtswert": 3404684.0, "Hochwert": 5759484.0, "raster": 1 }, "geometry": { "type": "Point", "coordinates": [ 7.612231766355003, 51.961104006486835 ] } },
{ "type": "Feature", "properties": { "ID": 901, "Name": "SP WESELER STRASSE", "Groesse": 3330.0, "Bereich": "A", "Ball": 2, "Skater": null, "Streetball": null, "Rechtswert": 3404519.0, "Hochwert": 5757550.0, "raster": 1 }, "geometry": { "type": "Point", "coordinates": [ 7.610368812319999, 51.94369907446579 ] } },
{ "type": "Feature", "properties": { "ID": 902, "Name": "SP STUDTSTRASSE", "Groesse": 819.0, "Bereich": "B/C", "Ball": 0, "Skater": null, "Streetball": null, "Rechtswert": 3405116.0, "Hochwert": 5760304.0000000009, "raster": 1 }, "geometry": { "type": "Point", "coordinates": [ 7.618288423000286, 51.968545399561783 ] } },
{ "type": "Feature", "properties": { "ID": 903, "Name": "SP GUT INSEL", "Groesse": 6086.0, "Bereich": "A+B/C", "Ball": 2, "Skater": null, "Streetball": "ja", "Rechtswert": 3404775.9999999995, "Hochwert": 5756870.0, "raster": 1 }, "geometry": { "type": "Point", "coordinates": [ 7.61429326161304, 51.937633384402034 ] } },
{ "type": "Feature", "properties": { "ID": 904, "Name": "SP GUT INSEL", "Groesse": 6086.0, "Bereich": "A+B/C", "Ball": 2, "Skater": null, "Streetball": "ja", "Rechtswert": 3404775.9999999995, "Hochwert": 5756870.0, "raster": 1 }, "geometry": { "type": "Point", "coordinates": [ 7.61429326161304, 51.937633384402034 ] } },
{ "type": "Feature", "properties": { "ID": 905, "Name": "SP MAURITZ-LINDENWEG", "Groesse": 1612.0, "Bereich": "A+B/C", "Ball": 0, "Skater": null, "Streetball": "ja", "Rechtswert": 3407853.0, "Hochwert": 5759391.0, "raster": 1 }, "geometry": { "type": "Point", "coordinates": [ 7.658347144489213, 51.960802200164494 ] } },
{ "type": "Feature", "properties": { "ID": 906, "Name": "SP AM KANONENGRABEN", "Groesse": 1839.0, "Bereich": "B/C", "Ball": 0, "Skater": null, "Streetball": null, "Rechtswert": 3405254.0, "Hochwert": 5758935.0, "raster": 1 }, "geometry": { "type": "Point", "coordinates": [ 7.620673094947248, 51.956268666466364 ] } },
{ "type": "Feature", "properties": { "ID": 907, "Name": "SP AASEE: TORMINBRÜCKE", "Groesse": 1900.0, "Bereich": "A", "Ball": 2, "Skater": null, "Streetball": null, "Rechtswert": 3403996.0, "Hochwert": 5758394.0, "raster": 1 }, "geometry": { "type": "Point", "coordinates": [ 7.602529830947254, 51.951192316670856 ] } },
{ "type": "Feature", "properties": { "ID": 908, "Name": "SP MIDDELFELD", "Groesse": 1917.0, "Bereich": "B/C", "Ball": 0, "Skater": null, "Streetball": null, "Rechtswert": 3411413.0, "Hochwert": 5762499.0, "raster": 1 }, "geometry": { "type": "Point", "coordinates": [ 7.709323569835192, 51.989306244158243 ] } },
{ "type": "Feature", "properties": { "ID": 909, "Name": "SP BERNHARD-POETHER-STRASSE", "Groesse": 654.0, "Bereich": "B/C", "Ball": 0, "Skater": null, "Streetball": null, "Rechtswert": 3405496.0000000005, "Hochwert": 5753606.0, "raster": 1 }, "geometry": { "type": "Point", "coordinates": [ 7.62565462786829, 51.908429237997325 ] } },
{ "type": "Feature", "properties": { "ID": 910, "Name": "SP VON-HOLTE-STRASSE", "Groesse": 645.0, "Bereich": "B/C", "Ball": 0, "Skater": null, "Streetball": null, "Rechtswert": 3411765.0, "Hochwert": 5754003.0, "raster": 1 }, "geometry": { "type": "Point", "coordinates": [ 7.716625515245249, 51.913023921403166 ] } },
{ "type": "Feature", "properties": { "ID": 911, "Name": "SP TULPENWEG", "Groesse": 748.0, "Bereich": "B/C", "Ball": 0, "Skater": null, "Streetball": null, "Rechtswert": 3408079.0, "Hochwert": 5752978.0, "raster": 1 }, "geometry": { "type": "Point", "coordinates": [ 7.663345705825461, 51.903218476164092 ] } },
{ "type": "Feature", "properties": { "ID": 912, "Name": "SP SOESTER STRASSE", "Groesse": 888.0, "Bereich": "B/C", "Ball": 0, "Skater": null, "Streetball": null, "Rechtswert": 3406421.0, "Hochwert": 5758629.0, "raster": 1 }, "geometry": { "type": "Point", "coordinates": [ 7.637727455109053, 51.953716723437445 ] } },
{ "type": "Feature", "properties": { "ID": 913, "Name": "SP FRIEDRICH-EBERT-STRASSE (STREETBALLPLATZ)", "Groesse": 932.0, "Bereich": "B/C", "Ball": 1, "Skater": null, "Streetball": "ja", "Rechtswert": 3406002.0, "Hochwert": 5758355.0, "raster": 1 }, "geometry": { "type": "Point", "coordinates": [ 7.631709363849546, 51.951184258719877 ] } },
{ "type": "Feature", "properties": { "ID": 914, "Name": "SP PARK SENTMARING             (BALLSPIELPLATZ)", "Groesse": 750.0, "Bereich": "A+B/C", "Ball": 1, "Skater": null, "Streetball": null, "Rechtswert": 3404806.0, "Hochwert": 5757705.0, "raster": 1 }, "geometry": { "type": "Point", "coordinates": [ 7.614498437401802, 51.94514086723634 ] } },
{ "type": "Feature", "properties": { "ID": 915, "Name": "SP HUBERTISTRASSE", "Groesse": 2942.0, "Bereich": "A+B/C", "Ball": 2, "Skater": null, "Streetball": null, "Rechtswert": 3407287.0, "Hochwert": 5758599.0, "raster": 1 }, "geometry": { "type": "Point", "coordinates": [ 7.650328708398018, 51.953592096275642 ] } },
{ "type": "Feature", "properties": { "ID": 916, "Name": "SP AN DER MEERWIESE-MITTE", "Groesse": null, "Bereich": null, "Ball": null, "Skater": null, "Streetball": null, "Rechtswert": 3407366.0, "Hochwert": 5762508.0, "raster": 1 }, "geometry": { "type": "Point", "coordinates": [ 7.650423733587448, 51.988727397337129 ] } },
{ "type": "Feature", "properties": { "ID": 917, "Name": "SP AN DER MEERWIESE-MITTE", "Groesse": null, "Bereich": null, "Ball": null, "Skater": null, "Streetball": null, "Rechtswert": 3407366.0, "Hochwert": 5762508.0, "raster": 1 }, "geometry": { "type": "Point", "coordinates": [ 7.650423733587448, 51.988727397337129 ] } },
{ "type": "Feature", "properties": { "ID": 918, "Name": "SP FALGERSTRASSE", "Groesse": 1600.0, "Bereich": "B/C", "Ball": 2, "Skater": null, "Streetball": null, "Rechtswert": 3406006.0, "Hochwert": 5761116.0, "raster": 1 }, "geometry": { "type": "Point", "coordinates": [ 7.631012635568098, 51.975992198838263 ] } },
{ "type": "Feature", "properties": { "ID": 919, "Name": "SP FALGERSTRASSE", "Groesse": 1600.0, "Bereich": "B/C", "Ball": 2, "Skater": null, "Streetball": null, "Rechtswert": 3406006.0, "Hochwert": 5761116.0, "raster": 1 }, "geometry": { "type": "Point", "coordinates": [ 7.631012635568098, 51.975992198838263 ] } },
{ "type": "Feature", "properties": { "ID": 920, "Name": "SP KEMPERWEG", "Groesse": 2200.0, "Bereich": "A+B/C", "Ball": 0, "Skater": null, "Streetball": null, "Rechtswert": 3406695.9999999995, "Hochwert": 5762609.0, "raster": 1 }, "geometry": { "type": "Point", "coordinates": [ 7.640645727538289, 51.98952282299139 ] } },
{ "type": "Feature", "properties": { "ID": 921, "Name": "SP DÜESBERGWEG", "Groesse": 1700.0, "Bereich": "A", "Ball": 0, "Skater": null, "Streetball": null, "Rechtswert": 3404402.0, "Hochwert": 5756036.0, "raster": 1 }, "geometry": { "type": "Point", "coordinates": [ 7.609088188029767, 51.930075950276382 ] } },
{ "type": "Feature", "properties": { "ID": 922, "Name": "SP RINCKLAKEWEG", "Groesse": 1082.0, "Bereich": "B/C", "Ball": 0, "Skater": null, "Streetball": null, "Rechtswert": 3404984.0000000005, "Hochwert": 5755553.0, "raster": 1 }, "geometry": { "type": "Point", "coordinates": [ 7.617680153108347, 51.925835821783956 ] } },
{ "type": "Feature", "properties": { "ID": 923, "Name": "SP MERGELBERG-SÜD", "Groesse": 3043.0, "Bereich": "B/C", "Ball": 0, "Skater": null, "Streetball": null, "Rechtswert": 3401222.0, "Hochwert": 5760063.0, "raster": 1 }, "geometry": { "type": "Point", "coordinates": [ 7.561715180448854, 51.96570233299277 ] } },
{ "type": "Feature", "properties": { "ID": 924, "Name": "SP COERDEPLATZ", "Groesse": 2377.0, "Bereich": "A+B/C", "Ball": 0, "Skater": null, "Streetball": null, "Rechtswert": 3405874.0, "Hochwert": 5760179.0, "raster": 1 }, "geometry": { "type": "Point", "coordinates": [ 7.629348855094285, 51.967551057786402 ] } },
{ "type": "Feature", "properties": { "ID": 925, "Name": "SP DUNANTSTRASSE", "Groesse": 1023.0, "Bereich": "B/C", "Ball": 0, "Skater": null, "Streetball": null, "Rechtswert": 3404545.0, "Hochwert": 5757813.0000000009, "raster": 1 }, "geometry": { "type": "Point", "coordinates": [ 7.610673862545636, 51.946066544028668 ] } },
{ "type": "Feature", "properties": { "ID": 926, "Name": "SP WILLINGROTT", "Groesse": 880.0, "Bereich": "B/C", "Ball": 0, "Skater": null, "Streetball": null, "Rechtswert": 3411789.0, "Hochwert": 5764109.0, "raster": 1 }, "geometry": { "type": "Point", "coordinates": [ 7.714381832895371, 52.003832109109638 ] } },
{ "type": "Feature", "properties": { "ID": 927, "Name": "SP DIEPENBROCKSTRASSE", "Groesse": 729.0, "Bereich": "B/C", "Ball": 0, "Skater": null, "Streetball": null, "Rechtswert": 3406624.0, "Hochwert": 5759117.0, "raster": 1 }, "geometry": { "type": "Point", "coordinates": [ 7.640546934384389, 51.958135461316367 ] } },
{ "type": "Feature", "properties": { "ID": 928, "Name": "SP SCHWARZER KAMP", "Groesse": 1333.0, "Bereich": "B/C", "Ball": 0, "Skater": null, "Streetball": null, "Rechtswert": 3401575.0, "Hochwert": 5755679.0, "raster": 1 }, "geometry": { "type": "Point", "coordinates": [ 7.568103469141119, 51.926376108170146 ] } },
{ "type": "Feature", "properties": { "ID": 929, "Name": "SP SCHULTE-BERND-STRASSE", "Groesse": 552.0, "Bereich": "B/C", "Ball": 0, "Skater": null, "Streetball": null, "Rechtswert": 3399142.0, "Hochwert": 5758596.0, "raster": 1 }, "geometry": { "type": "Point", "coordinates": [ 7.531891942175074, 51.952148890025377 ] } },
{ "type": "Feature", "properties": { "ID": 930, "Name": "SP HOLSENKAMPWEG", "Groesse": 677.0, "Bereich": "B/C", "Ball": 0, "Skater": null, "Streetball": null, "Rechtswert": 3408402.0, "Hochwert": 5753193.0, "raster": 1 }, "geometry": { "type": "Point", "coordinates": [ 7.66798037480096, 51.905203430958132 ] } },
{ "type": "Feature", "properties": { "ID": 931, "Name": "SP KLEIMANNSTRASSE", "Groesse": 1660.0, "Bereich": "A+B/C", "Ball": 0, "Skater": null, "Streetball": null, "Rechtswert": 3405106.0, "Hochwert": 5760178.0, "raster": 1 }, "geometry": { "type": "Point", "coordinates": [ 7.618177747831827, 51.96741160556904 ] } },
{ "type": "Feature", "properties": { "ID": 932, "Name": "SP HOFFMANN-VON-FALLERSLEBEN-WEG", "Groesse": 575.0, "Bereich": "B/C", "Ball": 0, "Skater": null, "Streetball": null, "Rechtswert": 3406038.0, "Hochwert": 5752856.0, "raster": 1 }, "geometry": { "type": "Point", "coordinates": [ 7.633732578769225, 51.901782115049137 ] } },
{ "type": "Feature", "properties": { "ID": 933, "Name": "SP FRANZ-MARC-WEG", "Groesse": 625.0, "Bereich": "B/C", "Ball": 0, "Skater": null, "Streetball": null, "Rechtswert": 3408692.0, "Hochwert": 5752600.0, "raster": 1 }, "geometry": { "type": "Point", "coordinates": [ 7.672349922352707, 51.899922823877354 ] } },
{ "type": "Feature", "properties": { "ID": 934, "Name": "SP FRITZ-PÜTTER-STRASSE", "Groesse": 634.0, "Bereich": "B/C", "Ball": 0, "Skater": null, "Streetball": null, "Rechtswert": 3405696.0, "Hochwert": 5756748.0, "raster": 1 }, "geometry": { "type": "Point", "coordinates": [ 7.627700189727158, 51.936693769441419 ] } },
{ "type": "Feature", "properties": { "ID": 935, "Name": "SP KORBMACHERWEG", "Groesse": 3268.0, "Bereich": "A+B/C", "Ball": 0, "Skater": null, "Streetball": null, "Rechtswert": 3398833.0, "Hochwert": 5758644.0, "raster": 1 }, "geometry": { "type": "Point", "coordinates": [ 7.52738480936147, 51.95252407193302 ] } },
{ "type": "Feature", "properties": { "ID": 936, "Name": "SP MARTIN-NIEMÖLLER-STRASSE", "Groesse": 800.0, "Bereich": "B/C", "Ball": 0, "Skater": null, "Streetball": null, "Rechtswert": 3404102.0, "Hochwert": 5762864.0000000009, "raster": 1 }, "geometry": { "type": "Point", "coordinates": [ 7.602823678337519, 51.991372498510479 ] } },
{ "type": "Feature", "properties": { "ID": 937, "Name": "SP AM BERLER KAMP", "Groesse": 1433.0, "Bereich": "B/C", "Ball": 0, "Skater": null, "Streetball": null, "Rechtswert": 3411934.0, "Hochwert": 5754531.0, "raster": 1 }, "geometry": { "type": "Point", "coordinates": [ 7.718946036945232, 51.917794875560851 ] } },
{ "type": "Feature", "properties": { "ID": 938, "Name": "SP PARKALLEE", "Groesse": 1462.0, "Bereich": "B/C", "Ball": 0, "Skater": null, "Streetball": null, "Rechtswert": 3409392.0, "Hochwert": 5759405.0, "raster": 1 }, "geometry": { "type": "Point", "coordinates": [ 7.680726995617089, 51.961180735739525 ] } },
{ "type": "Feature", "properties": { "ID": 939, "Name": "SP MÖLLMANNSWEG", "Groesse": 3000.0, "Bereich": "A+B/C", "Ball": 2, "Skater": "ja", "Streetball": "ja", "Rechtswert": 3402849.0, "Hochwert": 5759705.0, "raster": 1 }, "geometry": { "type": "Point", "coordinates": [ 7.585481441876829, 51.962772287717151 ] } },
{ "type": "Feature", "properties": { "ID": 940, "Name": "SP NIENKAMP", "Groesse": 1538.0, "Bereich": "B/C", "Ball": 2, "Skater": null, "Streetball": null, "Rechtswert": 3404887.0, "Hochwert": 5762074.0, "raster": 1 }, "geometry": { "type": "Point", "coordinates": [ 7.614467238476681, 51.984409394271282 ] } },
{ "type": "Feature", "properties": { "ID": 941, "Name": "SP WINKELHEIDE", "Groesse": 1098.0, "Bereich": "B/C", "Ball": 0, "Skater": null, "Streetball": null, "Rechtswert": 3409131.0, "Hochwert": 5766890.9999999991, "raster": 1 }, "geometry": { "type": "Point", "coordinates": [ 7.674948631867957, 52.028399870656848 ] } },
{ "type": "Feature", "properties": { "ID": 942, "Name": "SP SCHULCAMPUS ROXEL", "Groesse": null, "Bereich": null, "Ball": null, "Skater": null, "Streetball": null, "Rechtswert": 3398908.0, "Hochwert": 5758887.0, "raster": 1 }, "geometry": { "type": "Point", "coordinates": [ 7.528403942581, 51.954720932279095 ] } },
{ "type": "Feature", "properties": { "ID": 943, "Name": "SP HÖLDERLINWEG", "Groesse": 800.0, "Bereich": "B/C", "Ball": 0, "Skater": null, "Streetball": null, "Rechtswert": 3405715.0, "Hochwert": 5752679.0, "raster": 1 }, "geometry": { "type": "Point", "coordinates": [ 7.629089407978178, 51.90013725543885 ] } },
{ "type": "Feature", "properties": { "ID": 944, "Name": "SP MELCHERSSTRASSE", "Groesse": 2075.0, "Bereich": "B/C", "Ball": 0, "Skater": null, "Streetball": "ja", "Rechtswert": 3404982.0, "Hochwert": 5760618.0, "raster": 1 }, "geometry": { "type": "Point", "coordinates": [ 7.616252390528554, 51.971343761484988 ] } },
{ "type": "Feature", "properties": { "ID": 945, "Name": "SP WESERSTRASSE", "Groesse": null, "Bereich": null, "Ball": null, "Skater": null, "Streetball": null, "Rechtswert": 3408033.0, "Hochwert": 5760468.0, "raster": 1 }, "geometry": { "type": "Point", "coordinates": [ 7.66067693693304, 51.970508810649122 ] } },
{ "type": "Feature", "properties": { "ID": 946, "Name": "SP AN DER MEERWIESE-SÜD", "Groesse": null, "Bereich": null, "Ball": null, "Skater": null, "Streetball": null, "Rechtswert": 3407242.0, "Hochwert": 5762218.9999999991, "raster": 1 }, "geometry": { "type": "Point", "coordinates": [ 7.648697234239202, 51.98611008177302 ] } },
{ "type": "Feature", "properties": { "ID": 947, "Name": "SP AN DER MEERWIESE-SÜD", "Groesse": null, "Bereich": null, "Ball": null, "Skater": null, "Streetball": null, "Rechtswert": 3407242.0, "Hochwert": 5762218.9999999991, "raster": 1 }, "geometry": { "type": "Point", "coordinates": [ 7.648697234239202, 51.98611008177302 ] } },
{ "type": "Feature", "properties": { "ID": 948, "Name": "SP AM EDELBACH", "Groesse": 2111.0, "Bereich": "A+B/C", "Ball": 0, "Skater": null, "Streetball": null, "Rechtswert": 3407661.0, "Hochwert": 5763093.0000000009, "raster": 1 }, "geometry": { "type": "Point", "coordinates": [ 7.654559522770293, 51.994032657886102 ] } },
{ "type": "Feature", "properties": { "ID": 949, "Name": "SP AM EDELBACH", "Groesse": 2111.0, "Bereich": "A+B/C", "Ball": 0, "Skater": null, "Streetball": null, "Rechtswert": 3407661.0, "Hochwert": 5763093.0000000009, "raster": 1 }, "geometry": { "type": "Point", "coordinates": [ 7.654559522770293, 51.994032657886102 ] } },
{ "type": "Feature", "properties": { "ID": 950, "Name": "SP HAMANNPLATZ", "Groesse": 2400.0, "Bereich": "A+B/C", "Ball": 0, "Skater": null, "Streetball": null, "Rechtswert": 3407222.0, "Hochwert": 5763184.0000000009, "raster": 1 }, "geometry": { "type": "Point", "coordinates": [ 7.648145351697448, 51.994777178126569 ] } },
{ "type": "Feature", "properties": { "ID": 951, "Name": "SP CARLO-SCHMID-WEG", "Groesse": 236.0, "Bereich": "C", "Ball": 0, "Skater": null, "Streetball": null, "Rechtswert": 3403582.0, "Hochwert": 5763663.9999999991, "raster": 1 },